[
  {
    "cityName": "Delhi",
    "localityName": "NCR Sarita Vihar",
    "localityId": "ZWL005764",
    "latitude": 28.531759,
    "longitude": 77.2939731,
    "device_type": "- Automated weather system"
  },
  {
    "cityName": "Delhi",
    "localityName": "NCR Faridabad Sector 41-50",
    "localityId": "ZWL008752",
    "latitude": 28.460895,
    "longitude": 77.3047641,
    "device_type": "- Automated weather system"
  },
  {
    "cityName": "Delhi",
    "localityName": "NCR New Friends Colony",
    "localityId": "ZWL005996",
    "latitude": 28.565268,
    "longitude": 77.2749711,
    "device_type": "- Automated weather system"
  },
  {
    "cityName": "Delhi",
    "localityName": "NCR Sector 26 (Noida)",
    "localityId": "ZWL005243",
    "latitude": 28.574404,
    "longitude": 77.3341781,
    "device_type": "- Automated weather system"
  },
  {
    "cityName": "Delhi",
    "localityName": "NCR New Industrial Town",
    "localityId": "ZWL009032",
    "latitude": 28.375702,
    "longitude": 77.2994421,
    "device_type": "- Automated weather system"
  },
  {
    "cityName": "Delhi",
    "localityName": "NCR Tilak Nagar",
    "localityId": "ZWL005428",
    "latitude": 28.641372,
    "longitude": 77.0946891,
    "device_type": "- Automated weather system"
  },
  {
    "cityName": "Delhi",
    "localityName": "NCR Sector 10, Gurgaon",
    "localityId": "ZWL001073",
    "latitude": 28.436077,
    "longitude": 76.9967571,
    "device_type": "- Automated weather system"
  },
  {
    "cityName": "Delhi",
    "localityName": "NCR Ashok Vihar, Delhi",
    "localityId": "ZWL001319",
    "latitude": 28.684453,
    "longitude": 77.1744181,
    "device_type": "- Automated weather system"
  },
  {
    "cityName": "Delhi",
    "localityName": "NCR Kalkaji",
    "localityId": "ZWL004800",
    "latitude": 28.529029,
    "longitude": 77.2589391,
    "device_type": "- Automated weather system"
  },
  {
    "cityName": "Delhi",
    "localityName": "NCR Sector 53",
    "localityId": "ZWL003118",
    "latitude": 28.442743,
    "longitude": 77.1043791,
    "device_type": "- Automated weather system"
  },
  {
    "cityName": "Delhi",
    "localityName": "NCR Sector 49",
    "localityId": "ZWL002091",
    "latitude": 28.408012,
    "longitude": 77.0500641,
    "device_type": "- Automated weather system"
  },
  {
    "cityName": "Delhi",
    "localityName": "NCR Vasundhara",
    "localityId": "ZWL002662",
    "latitude": 28.665225,
    "longitude": 77.3667822,
    "device_type": "- Rain gauge system"
  },
  {
    "cityName": "Delhi",
    "localityName": "NCR Rajinder Nagar",
    "localityId": "ZWL001404",
    "latitude": 28.640732,
    "longitude": 77.1829001,
    "device_type": "- Automated weather system"
  },
  {
    "cityName": "Delhi",
    "localityName": "NCR Safdarjung Enclave",
    "localityId": "ZWL008963",
    "latitude": 28.562608,
    "longitude": 77.1914571,
    "device_type": "- Automated weather system"
  },
  {
    "cityName": "Delhi",
    "localityName": "NCR Connaught Place",
    "localityId": "ZWL006538",
    "latitude": 28.63063,
    "longitude": 77.2206401,
    "device_type": "- Automated weather system"
  },
  {
    "cityName": "Delhi",
    "localityName": "NCR Sector 66",
    "localityId": "ZWL003075",
    "latitude": 28.380856,
    "longitude": 77.0627511,
    "device_type": "- Automated weather system"
  },
  {
    "cityName": "Delhi",
    "localityName": "NCR Sector 57",
    "localityId": "ZWL003721",
    "latitude": 28.4221,
    "longitude": 77.0827401,
    "device_type": "- Automated weather system"
  },
  {
    "cityName": "Delhi",
    "localityName": "NCR Moti Bagh, Delhi",
    "localityId": "ZWL006396",
    "latitude": 28.575774,
    "longitude": 77.1806971,
    "device_type": "- Automated weather system"
  },
  {
    "cityName": "Delhi",
    "localityName": "NCR Patel Nagar, Delhi",
    "localityId": "ZWL004535",
    "latitude": 28.652848,
    "longitude": 77.1679091,
    "device_type": "- Automated weather system"
  },
  {
    "cityName": "Delhi",
    "localityName": "NCR Greater Noida",
    "localityId": "ZWL008554",
    "latitude": 28.456171,
    "longitude": 77.5215771,
    "device_type": "- Automated weather system"
  },
  {
    "cityName": "Delhi",
    "localityName": "NCR Karkardooma, Delhi",
    "localityId": "ZWL004533",
    "latitude": 28.656829,
    "longitude": 77.3105531,
    "device_type": "- Automated weather system"
  },
  {
    "cityName": "Delhi",
    "localityName": "NCR Tigaon",
    "localityId": "ZWL002179",
    "latitude": 28.41712,
    "longitude": 77.4125691,
    "device_type": "- Automated weather system"
  },
  {
    "cityName": "Delhi",
    "localityName": "NCR Sector 50 (Noida)",
    "localityId": "ZWL007487",
    "latitude": 28.569103,
    "longitude": 77.3648761,
    "device_type": "- Automated weather system"
  },
  {
    "cityName": "Delhi",
    "localityName": "NCR Vasant Kunj, Delhi",
    "localityId": "ZWL007120",
    "latitude": 28.524633,
    "longitude": 77.1512061,
    "device_type": "- Automated weather system"
  },
  {
    "cityName": "Delhi",
    "localityName": "NCR Dwarka, Delhi",
    "localityId": "ZWL007486",
    "latitude": 28.594467,
    "longitude": 77.0477471,
    "device_type": "- Automated weather system"
  },
  {
    "cityName": "Delhi",
    "localityName": "NCR Sector 15",
    "localityId": "ZWL006287",
    "latitude": 28.457927,
    "longitude": 77.0348161,
    "device_type": "- Automated weather system"
  },
  {
    "cityName": "Delhi",
    "localityName": "NCR Mayur Vihar Phase III",
    "localityId": "ZWL002146",
    "latitude": 28.606,
    "longitude": 77.3236751,
    "device_type": "- Automated weather system"
  },
  {
    "cityName": "Delhi",
    "localityName": "NCR Crossing Republik",
    "localityId": "ZWL008405",
    "latitude": 28.635043,
    "longitude": 77.4190561,
    "device_type": "- Automated weather system"
  },
  {
    "cityName": "Delhi",
    "localityName": "NCR Sector 28",
    "localityId": "ZWL004455",
    "latitude": 28.473457,
    "longitude": 77.0875321,
    "device_type": "- Automated weather system"
  },
  {
    "cityName": "Delhi",
    "localityName": "NCR Palam Vihar, Gurgaon",
    "localityId": "ZWL005087",
    "latitude": 28.508782,
    "longitude": 77.0335061,
    "device_type": "- Automated weather system"
  },
  {
    "cityName": "Delhi",
    "localityName": "NCR Sector 63 (Noida)",
    "localityId": "ZWL009648",
    "latitude": 28.621672,
    "longitude": 77.3864741,
    "device_type": "- Automated weather system"
  },
  {
    "cityName": "Delhi",
    "localityName": "NCR Raj Nagar, Ghaziabad",
    "localityId": "ZWL008317",
    "latitude": 28.689174,
    "longitude": 77.4289761,
    "device_type": "- Automated weather system"
  },
  {
    "cityName": "Delhi",
    "localityName": "NCR Sector 128",
    "localityId": "ZWL005878",
    "latitude": 28.526706,
    "longitude": 77.3548681,
    "device_type": "- Automated weather system"
  },
  {
    "cityName": "Delhi",
    "localityName": "NCR Sector 56, Gurgaon",
    "localityId": "ZWL003241",
    "latitude": 28.418235,
    "longitude": 77.1018601,
    "device_type": "- Automated weather system"
  },
  {
    "cityName": "Delhi",
    "localityName": "NCR Indirapuram",
    "localityId": "ZWL007224",
    "latitude": 28.644059,
    "longitude": 77.3738831,
    "device_type": "- Automated weather system"
  },
  {
    "cityName": "Delhi",
    "localityName": "NCR Malviya Nagar",
    "localityId": "ZWL009834",
    "latitude": 28.536048,
    "longitude": 77.2134531,
    "device_type": "- Automated weather system"
  },
  {
    "cityName": "Delhi",
    "localityName": "NCR Sector 43, Gurgaon",
    "localityId": "ZWL007284",
    "latitude": 28.454416,
    "longitude": 77.0888201,
    "device_type": "- Automated weather system"
  },
  {
    "cityName": "Delhi",
    "localityName": "NCR Sector 120 (Noida)",
    "localityId": "ZWL006738",
    "latitude": 28.586854,
    "longitude": 77.3908321,
    "device_type": "- Automated weather system"
  },
  {
    "cityName": "Delhi",
    "localityName": "NCR Saket",
    "localityId": "ZWL007329",
    "latitude": 28.523171,
    "longitude": 77.2075431,
    "device_type": "- Automated weather system"
  },
  {
    "cityName": "Delhi",
    "localityName": "NCR Sector 18 (Noida)",
    "localityId": "ZWL001752",
    "latitude": 28.568937,
    "longitude": 77.3244142,
    "device_type": "- Rain gauge system"
  },
  {
    "cityName": "Delhi",
    "localityName": "NCR Naraina",
    "localityId": "ZWL007594",
    "latitude": 28.627479,
    "longitude": 77.1421152,
    "device_type": "- Rain gauge system"
  },
  {
    "cityName": "Delhi",
    "localityName": "NCR Patparganj",
    "localityId": "ZWL006116",
    "latitude": 28.632961,
    "longitude": 77.3083441,
    "device_type": "- Automated weather system"
  },
  {
    "cityName": "Delhi",
    "localityName": "NCR Ghitorni",
    "localityId": "ZWL009925",
    "latitude": 28.486412,
    "longitude": 77.1253661,
    "device_type": "- Automated weather system"
  },
  {
    "cityName": "Delhi",
    "localityName": "NCR Faridabad Sector 1-11",
    "localityId": "ZWL009335",
    "latitude": 28.365131,
    "longitude": 77.3261571,
    "device_type": "- Automated weather system"
  },
  {
    "cityName": "Delhi",
    "localityName": "NCR Sector 24",
    "localityId": "ZWL009638",
    "latitude": 28.497419,
    "longitude": 77.0909801,
    "device_type": "- Automated weather system"
  },
  {
    "cityName": "Delhi",
    "localityName": "NCR Rajouri Garden",
    "localityId": "ZWL005670",
    "latitude": 28.646438,
    "longitude": 77.1223572,
    "device_type": "- Rain gauge system"
  },
  {
    "cityName": "Delhi",
    "localityName": "NCR Vishnu Garden",
    "localityId": "ZWL003757",
    "latitude": 28.646933,
    "longitude": 77.0950641,
    "device_type": "- Automated weather system"
  },
  {
    "cityName": "Delhi",
    "localityName": "NCR Sector 48, Gurgaon",
    "localityId": "ZWL003610",
    "latitude": 28.416008,
    "longitude": 77.0321641,
    "device_type": "- Automated weather system"
  },
  {
    "cityName": "Delhi",
    "localityName": "NCR Kirti Nagar",
    "localityId": "ZWL005971",
    "latitude": 28.654433,
    "longitude": 77.1423671,
    "device_type": "- Automated weather system"
  },
  {
    "cityName": "Delhi",
    "localityName": "NCR Faridabad Sector 81-89",
    "localityId": "ZWL003626",
    "latitude": 28.397247,
    "longitude": 77.3455691,
    "device_type": "- Automated weather system"
  },
  {
    "cityName": "Delhi",
    "localityName": "NCR GK I",
    "localityId": "ZWL005876",
    "latitude": 28.550911,
    "longitude": 77.2352721,
    "device_type": "- Automated weather system"
  },
  {
    "cityName": "Delhi",
    "localityName": "NCR Mohan Estate",
    "localityId": "ZWL006295",
    "latitude": 28.494788,
    "longitude": 77.3127271,
    "device_type": "- Automated weather system"
  },
  {
    "cityName": "Delhi",
    "localityName": "NCR Mukherjee Nagar",
    "localityId": "ZWL007653",
    "latitude": 28.702971,
    "longitude": 77.2097401,
    "device_type": "- Automated weather system"
  },
  {
    "cityName": "Delhi",
    "localityName": "NCR Mehrauli",
    "localityId": "ZWL006697",
    "latitude": 28.524426,
    "longitude": 77.1839962,
    "device_type": "- Rain gauge system"
  },
  {
    "cityName": "Delhi",
    "localityName": "NCR Burari",
    "localityId": "ZWL003259",
    "latitude": 28.753669,
    "longitude": 77.1910371,
    "device_type": "- Automated weather system"
  },
  {
    "cityName": "Delhi",
    "localityName": "NCR Gaur city, Ghaziabad",
    "localityId": "ZWL004759",
    "latitude": 28.607703,
    "longitude": 77.4343851,
    "device_type": "- Automated weather system"
  },
  {
    "cityName": "Delhi",
    "localityName": "NCR GK II",
    "localityId": "ZWL004477",
    "latitude": 28.533936,
    "longitude": 77.2438001,
    "device_type": "- Automated weather system"
  },
  {
    "cityName": "Delhi",
    "localityName": "NCR Rohini",
    "localityId": "ZWL005077",
    "latitude": 28.723712,
    "longitude": 77.1045962,
    "device_type": "- Rain gauge system"
  },
  {
    "cityName": "Delhi",
    "localityName": "NCR Rangpuri",
    "localityId": "ZWL008191",
    "latitude": 28.533976,
    "longitude": 77.1195161,
    "device_type": "- Automated weather system"
  },
  {
    "cityName": "Delhi",
    "localityName": "NCR Sector 46",
    "localityId": "ZWL006092",
    "latitude": 28.438586,
    "longitude": 77.0607731,
    "device_type": "- Automated weather system"
  },
  {
    "cityName": "Delhi",
    "localityName": "NCR Sector 62 (Noida)",
    "localityId": "ZWL001549",
    "latitude": 28.611088,
    "longitude": 77.3696522,
    "device_type": "- Rain gauge system"
  },
  {
    "cityName": "Delhi",
    "localityName": "NCR Shalimar Bagh",
    "localityId": "ZWL001036",
    "latitude": 28.720312,
    "longitude": 77.1648491,
    "device_type": "- Automated weather system"
  },
  {
    "cityName": "Delhi",
    "localityName": "NCR Model Town",
    "localityId": "ZWL006996",
    "latitude": 28.717232,
    "longitude": 77.1946431,
    "device_type": "- Automated weather system"
  },
  {
    "cityName": "Delhi",
    "localityName": "NCR Faridabad Sector 16-20",
    "localityId": "ZWL007566",
    "latitude": 28.422437,
    "longitude": 77.3101131,
    "device_type": "- Automated weather system"
  },
  {
    "cityName": "Delhi",
    "localityName": "NCR Sector 2 (Noida)",
    "localityId": "ZWL009852",
    "latitude": 28.581459,
    "longitude": 77.3167201,
    "device_type": "- Automated weather system"
  },
  {
    "cityName": "Delhi",
    "localityName": "NCR Govindpuram",
    "localityId": "ZWL008648",
    "latitude": 28.689317,
    "longitude": 77.4869302,
    "device_type": "- Rain gauge system"
  },
  {
    "cityName": "Delhi",
    "localityName": "NCR Gwal Pahari",
    "localityId": "ZWL009728",
    "latitude": 28.435122,
    "longitude": 77.1363081,
    "device_type": "- Automated weather system"
  },
  {
    "cityName": "Delhi",
    "localityName": "NCR Nehru Nagar",
    "localityId": "ZWL006868",
    "latitude": 28.653441,
    "longitude": 77.4499692,
    "device_type": "- Rain gauge system"
  },
  {
    "cityName": "Delhi",
    "localityName": "NCR Chittaranjan Park",
    "localityId": "ZWL002067",
    "latitude": 28.53753,
    "longitude": 77.2490701,
    "device_type": "- Automated weather system"
  },
  {
    "cityName": "Delhi",
    "localityName": "NCR IMT Manesar",
    "localityId": "ZWL008791",
    "latitude": 28.384492,
    "longitude": 76.9419501,
    "device_type": "- Automated weather system"
  },
  {
    "cityName": "Delhi",
    "localityName": "NCR Sector 73 Z Kitchen",
    "localityId": "ZWL003043",
    "latitude": 28.580105,
    "longitude": 77.3854362,
    "device_type": "- Rain gauge system"
  },
  {
    "cityName": "Delhi",
    "localityName": "NCR Sector 51",
    "localityId": "ZWL004159",
    "latitude": 28.430042,
    "longitude": 77.0652131,
    "device_type": "- Automated weather system"
  },
  {
    "cityName": "Delhi",
    "localityName": "NCR Ballabhgarh",
    "localityId": "ZWL005960",
    "latitude": 28.343049,
    "longitude": 77.3303172,
    "device_type": "- Rain gauge system"
  },
  {
    "cityName": "Delhi",
    "localityName": "NCR Nangloi",
    "localityId": "ZWL009293",
    "latitude": 28.659524,
    "longitude": 77.0608001,
    "device_type": "- Automated weather system"
  },
  {
    "cityName": "Delhi",
    "localityName": "NCR Uttam Nagar",
    "localityId": "ZWL001663",
    "latitude": 28.616774,
    "longitude": 77.0571361,
    "device_type": "- Automated weather system"
  },
  {
    "cityName": "Delhi",
    "localityName": "NCR Sector 47",
    "localityId": "ZWL005762",
    "latitude": 28.424524,
    "longitude": 77.0500652,
    "device_type": "- Rain gauge system"
  },
  {
    "cityName": "Delhi",
    "localityName": "NCR Paharganj",
    "localityId": "ZWL005345",
    "latitude": 28.645112,
    "longitude": 77.2128241,
    "device_type": "- Automated weather system"
  },
  {
    "cityName": "Delhi",
    "localityName": "NCR Sector 25",
    "localityId": "ZWL008225",
    "latitude": 28.484268,
    "longitude": 77.0846931,
    "device_type": "- Automated weather system"
  },
  {
    "cityName": "Delhi",
    "localityName": "NCR Pitampura",
    "localityId": "ZWL001933",
    "latitude": 28.688724,
    "longitude": 77.1382251,
    "device_type": "- Automated weather system"
  },
  {
    "cityName": "Delhi",
    "localityName": "NCR Shahdara",
    "localityId": "ZWL003591",
    "latitude": 28.688657,
    "longitude": 77.2782671,
    "device_type": "- Automated weather system"
  },
  {
    "cityName": "Delhi",
    "localityName": "NCR Sector 31",
    "localityId": "ZWL007061",
    "latitude": 28.442946,
    "longitude": 77.0571951,
    "device_type": "- Automated weather system"
  },
  {
    "cityName": "Delhi",
    "localityName": "NCR Sector 23",
    "localityId": "ZWL008476",
    "latitude": 28.50908,
    "longitude": 77.0571381,
    "device_type": "- Automated weather system"
  },
  {
    "cityName": "Delhi",
    "localityName": "NCR Sector 12 (Noida)",
    "localityId": "ZWL009008",
    "latitude": 28.599952,
    "longitude": 77.3431881,
    "device_type": "- Automated weather system"
  },
  {
    "cityName": "Delhi",
    "localityName": "NCR Mayur Vihar Phase II",
    "localityId": "ZWL005323",
    "latitude": 28.613695,
    "longitude": 77.3027751,
    "device_type": "- Automated weather system"
  },
  {
    "cityName": "Delhi",
    "localityName": "NCR Faridabad Sector 12-15",
    "localityId": "ZWL001412",
    "latitude": 28.394334,
    "longitude": 77.3240161,
    "device_type": "- Automated weather system"
  },
  {
    "cityName": "Delhi",
    "localityName": "NCR DLF PHASE 1 (SECTOR 26)",
    "localityId": "ZWL005925",
    "latitude": 28.47791,
    "longitude": 77.1038431,
    "device_type": "- Automated weather system"
  },
  {
    "cityName": "Delhi",
    "localityName": "NCR Laxmi Nagar",
    "localityId": "ZWL008716",
    "latitude": 28.627366,
    "longitude": 77.2792001,
    "device_type": "- Automated weather system"
  },
  {
    "cityName": "Delhi",
    "localityName": "NCR Karol Bagh",
    "localityId": "ZWL009339",
    "latitude": 28.647924,
    "longitude": 77.1904631,
    "device_type": "- Automated weather system"
  },
  {
    "cityName": "Delhi",
    "localityName": "NCR Chhatarpur",
    "localityId": "ZWL009096",
    "latitude": 28.497203,
    "longitude": 77.1716291,
    "device_type": "- Automated weather system"
  },
  {
    "cityName": "Delhi",
    "localityName": "NCR Paschim Vihar",
    "localityId": "ZWL006720",
    "latitude": 28.665591,
    "longitude": 77.0984782,
    "device_type": "- Rain gauge system"
  },
  {
    "cityName": "Delhi",
    "localityName": "NCR Sector 1, Noida",
    "localityId": "ZWL002908",
    "latitude": 28.573663,
    "longitude": 77.4154271,
    "device_type": "- Automated weather system"
  },
  {
    "cityName": "Delhi",
    "localityName": "NCR South Extension I",
    "localityId": "ZWL001186",
    "latitude": 28.578498,
    "longitude": 77.2236271,
    "device_type": "- Automated weather system"
  },
  {
    "cityName": "Delhi",
    "localityName": "NCR Sector 18",
    "localityId": "ZWL004789",
    "latitude": 28.495291,
    "longitude": 77.0697291,
    "device_type": "- Automated weather system"
  },
  {
    "cityName": "Delhi",
    "localityName": "NCR Kamla Nagar",
    "localityId": "ZWL008978",
    "latitude": 28.676018,
    "longitude": 77.2084461,
    "device_type": "- Automated weather system"
  },
  {
    "cityName": "Delhi",
    "localityName": "NCR Janakpuri",
    "localityId": "ZWL007903",
    "latitude": 28.623431,
    "longitude": 77.0978142,
    "device_type": "- Rain gauge system"
  },
  {
    "cityName": "Delhi",
    "localityName": "NCR Vikaspuri",
    "localityId": "ZWL008897",
    "latitude": 28.645655,
    "longitude": 77.0659221,
    "device_type": "- Automated weather system"
  },
  {
    "cityName": "Delhi",
    "localityName": "NCR Najafgarh",
    "localityId": "ZWL007431",
    "latitude": 28.607458,
    "longitude": 76.9959802,
    "device_type": "- Rain gauge system"
  },
  {
    "cityName": "Delhi",
    "localityName": "NCR Mayur Vihar Phase 1",
    "localityId": "ZWL001112",
    "latitude": 28.609961,
    "longitude": 77.2961331,
    "device_type": "- Automated weather system"
  },
  {
    "cityName": "Delhi",
    "localityName": "NCR Sez Noida 1",
    "localityId": "ZWL008649",
    "latitude": 28.507448,
    "longitude": 77.4100892,
    "device_type": "- Rain gauge system"
  },
  {
    "cityName": "Delhi",
    "localityName": "NCR Gulavali, Noida",
    "localityId": "ZWL006384",
    "latitude": 28.436941,
    "longitude": 77.4569031,
    "device_type": "- Automated weather system"
  },
  {
    "cityName": "Delhi",
    "localityName": "NCR Sector 14",
    "localityId": "ZWL007840",
    "latitude": 28.471738,
    "longitude": 77.0454721,
    "device_type": "- Automated weather system"
  },
  {
    "cityName": "Delhi",
    "localityName": "NCR Sector 76(Noida)",
    "localityId": "ZWL002072",
    "latitude": 28.570828,
    "longitude": 77.3904291,
    "device_type": "- Automated weather system"
  },
  {
    "cityName": "Delhi",
    "localityName": "NCR Green Park",
    "localityId": "ZWL003077",
    "latitude": 28.562981,
    "longitude": 77.2097291,
    "device_type": "- Automated weather system"
  },
  {
    "cityName": "Delhi",
    "localityName": "NCR Munirka",
    "localityId": "ZWL005395",
    "latitude": 28.554395,
    "longitude": 77.1725471,
    "device_type": "- Automated weather system"
  },
  {
    "cityName": "Delhi",
    "localityName": "NCR NEHRU PLACE",
    "localityId": "ZWL005729",
    "latitude": 28.555622,
    "longitude": 77.2508901,
    "device_type": "- Automated weather system"
  },
  {
    "cityName": "Delhi",
    "localityName": "NCR Lajpat Nagar",
    "localityId": "ZWL005736",
    "latitude": 28.565415,
    "longitude": 77.2472211,
    "device_type": "- Automated weather system"
  },
  {
    "cityName": "Delhi",
    "localityName": "NCR Sector 52 (Noida)",
    "localityId": "ZWL007212",
    "latitude": 28.595742,
    "longitude": 77.3629951,
    "device_type": "- Automated weather system"
  },
  {
    "cityName": "Delhi",
    "localityName": "NCR Sector 100 (Noida)",
    "localityId": "ZWL004803",
    "latitude": 28.547583,
    "longitude": 77.3709511,
    "device_type": "- Automated weather system"
  },
  {
    "cityName": "Delhi",
    "localityName": "NCR Sector 50",
    "localityId": "ZWL003444",
    "latitude": 28.418947,
    "longitude": 77.0595811,
    "device_type": "- Automated weather system"
  },
  {
    "cityName": "Delhi",
    "localityName": "NCR Dilshad Garden",
    "localityId": "ZWL008293",
    "latitude": 28.684684,
    "longitude": 77.3209861,
    "device_type": "- Automated weather system"
  },
  {
    "cityName": "Delhi",
    "localityName": "NCR Sector 29, Gurgaon",
    "localityId": "ZWL007308",
    "latitude": 28.459498,
    "longitude": 77.0610461,
    "device_type": "- Automated weather system"
  },
  {
    "cityName": "Delhi",
    "localityName": "NCR SUSHANT LOK 1",
    "localityId": "ZWL008219",
    "latitude": 28.467923,
    "longitude": 77.0765301,
    "device_type": "- Automated weather system"
  },
  {
    "cityName": "Delhi",
    "localityName": "NCR SAHIBABAD",
    "localityId": "ZWL006234",
    "latitude": 28.68292,
    "longitude": 77.3628271,
    "device_type": "- Automated weather system"
  },
  {
    "cityName": "Delhi",
    "localityName": "NCR Sector 45 (Noida)",
    "localityId": "ZWL007666",
    "latitude": 28.555596,
    "longitude": 77.3457131,
    "device_type": "- Automated weather system"
  },
  {
    "cityName": "Delhi",
    "localityName": "NCR Sector 84",
    "localityId": "ZWL002490",
    "latitude": 28.395433,
    "longitude": 76.9674361,
    "device_type": "- Automated weather system"
  },
  {
    "cityName": "Delhi",
    "localityName": "NCR Sector 7, Gurgaon",
    "localityId": "ZWL007138",
    "latitude": 28.476288,
    "longitude": 77.0133651,
    "device_type": "- Automated weather system"
  },
  {
    "cityName": "Delhi",
    "localityName": "NCR Sector 27",
    "localityId": "ZWL009706",
    "latitude": 28.46526,
    "longitude": 77.0857421,
    "device_type": "- Automated weather system"
  },
  {
    "cityName": "Delhi",
    "localityName": "NCR Hauz Khas",
    "localityId": "ZWL001267",
    "latitude": 28.551132,
    "longitude": 77.2114011,
    "device_type": "- Automated weather system"
  },
  {
    "cityName": "Delhi",
    "localityName": "NCR Jangpura",
    "localityId": "ZWL003552",
    "latitude": 28.58363,
    "longitude": 77.2469151,
    "device_type": "- Automated weather system"
  },
  {
    "cityName": "Delhi",
    "localityName": "NCR Sector 52, Gurgaon",
    "localityId": "ZWL008401",
    "latitude": 28.443858,
    "longitude": 77.0839911,
    "device_type": "- Automated weather system"
  },
  {
    "cityName": "Delhi",
    "localityName": "NCR Vaishali, Ghaziabad",
    "localityId": "ZWL001758",
    "latitude": 28.649375,
    "longitude": 77.3366091,
    "device_type": "- Automated weather system"
  },
  {
    "cityName": "Kolkata",
    "localityName": "Shibpur",
    "localityId": "ZWL003128",
    "latitude": 22.578477,
    "longitude": 88.3156752,
    "device_type": "- Rain gauge system"
  },
  {
    "cityName": "Kolkata",
    "localityName": "Kalyani 1, Kolkata",
    "localityId": "ZWL004322",
    "latitude": 22.983813,
    "longitude": 88.4274172,
    "device_type": "- Rain gauge system"
  },
  {
    "cityName": "Kolkata",
    "localityName": "Bansdroni",
    "localityId": "ZWL002495",
    "latitude": 22.472208,
    "longitude": 88.3578752,
    "device_type": "- Rain gauge system"
  },
  {
    "cityName": "Kolkata",
    "localityName": "Bow Barracks",
    "localityId": "ZWL009257",
    "latitude": 22.565476,
    "longitude": 88.3609181,
    "device_type": "- Automated weather system"
  },
  {
    "cityName": "Kolkata",
    "localityName": "Baranagar, Kolkata",
    "localityId": "ZWL005435",
    "latitude": 22.660464,
    "longitude": 88.3742552,
    "device_type": "- Rain gauge system"
  },
  {
    "cityName": "Kolkata",
    "localityName": "Sonarpur, Kolkata",
    "localityId": "ZWL007041",
    "latitude": 22.432033,
    "longitude": 88.4083691,
    "device_type": "- Automated weather system"
  },
  {
    "cityName": "Kolkata",
    "localityName": "Ballygunge",
    "localityId": "ZWL002918",
    "latitude": 22.532686,
    "longitude": 88.3626771,
    "device_type": "- Automated weather system"
  },
  {
    "cityName": "Kolkata",
    "localityName": "Sinthi, Kolkata",
    "localityId": "ZWL003388",
    "latitude": 22.627697,
    "longitude": 88.3807191,
    "device_type": "- Automated weather system"
  },
  {
    "cityName": "Kolkata",
    "localityName": "Salt Lake 2",
    "localityId": "ZWL008806",
    "latitude": 22.58356,
    "longitude": 88.4321762,
    "device_type": "- Rain gauge system"
  },
  {
    "cityName": "Kolkata",
    "localityName": "Alipore",
    "localityId": "ZWL008635",
    "latitude": 22.536626,
    "longitude": 88.3311421,
    "device_type": "- Automated weather system"
  },
  {
    "cityName": "Kolkata",
    "localityName": "Baguihati",
    "localityId": "ZWL002312",
    "latitude": 22.61499,
    "longitude": 88.4261841,
    "device_type": "- Automated weather system"
  },
  {
    "cityName": "Kolkata",
    "localityName": "South Dum Dum",
    "localityId": "ZWL001499",
    "latitude": 22.62157,
    "longitude": 88.4089151,
    "device_type": "- Automated weather system"
  },
  {
    "cityName": "Kolkata",
    "localityName": "Purba Barisha",
    "localityId": "ZWL003315",
    "latitude": 22.474612,
    "longitude": 88.3207751,
    "device_type": "- Automated weather system"
  },
  {
    "cityName": "Kolkata",
    "localityName": "Jadavpur",
    "localityId": "ZWL003794",
    "latitude": 22.49872,
    "longitude": 88.3625401,
    "device_type": "- Automated weather system"
  },
  {
    "cityName": "Kolkata",
    "localityName": "Tollygunge",
    "localityId": "ZWL006574",
    "latitude": 22.49862,
    "longitude": 88.3517321,
    "device_type": "- Automated weather system"
  },
  {
    "cityName": "Kolkata",
    "localityName": "Shyam Bazar",
    "localityId": "ZWL004138",
    "latitude": 22.594302,
    "longitude": 88.3772841,
    "device_type": "- Automated weather system"
  },
  {
    "cityName": "Kolkata",
    "localityName": "Behala",
    "localityId": "ZWL009022",
    "latitude": 22.488571,
    "longitude": 88.3066302,
    "device_type": "- Rain gauge system"
  },
  {
    "cityName": "Kolkata",
    "localityName": "Chandannagar, Kolkata",
    "localityId": "ZWL003271",
    "latitude": 22.865442,
    "longitude": 88.3673391,
    "device_type": "- Automated weather system"
  },
  {
    "cityName": "Kolkata",
    "localityName": "Barrackpore",
    "localityId": "ZWL003951",
    "latitude": 22.766771,
    "longitude": 88.3615521,
    "device_type": "- Automated weather system"
  },
  {
    "cityName": "Kolkata",
    "localityName": "East Kolkata Township",
    "localityId": "ZWL003915",
    "latitude": 22.512832,
    "longitude": 88.3994111,
    "device_type": "- Automated weather system"
  },
  {
    "cityName": "Kolkata",
    "localityName": "Bhowanipore",
    "localityId": "ZWL006750",
    "latitude": 22.526436,
    "longitude": 88.3439042,
    "device_type": "- Rain gauge system"
  },
  {
    "cityName": "Kolkata",
    "localityName": "Elgin",
    "localityId": "ZWL008828",
    "latitude": 22.543063,
    "longitude": 88.3560961,
    "device_type": "- Automated weather system"
  },
  {
    "cityName": "Kolkata",
    "localityName": "Howrah",
    "localityId": "ZWL008426",
    "latitude": 22.604678,
    "longitude": 88.3422181,
    "device_type": "- Automated weather system"
  },
  {
    "cityName": "Kolkata",
    "localityName": "New Alipore",
    "localityId": "ZWL007323",
    "latitude": 22.506135,
    "longitude": 88.3327701,
    "device_type": "- Automated weather system"
  },
  {
    "cityName": "Kolkata",
    "localityName": "Barasat",
    "localityId": "ZWL006266",
    "latitude": 22.735727,
    "longitude": 88.4904981,
    "device_type": "- Automated weather system"
  },
  {
    "cityName": "Kolkata",
    "localityName": "New Town (kolkata)",
    "localityId": "ZWL008393",
    "latitude": 22.588818,
    "longitude": 88.4579641,
    "device_type": "- Automated weather system"
  },
  {
    "cityName": "Kolkata",
    "localityName": "Uttarpara",
    "localityId": "ZWL007966",
    "latitude": 22.69242,
    "longitude": 88.3429001,
    "device_type": "- Automated weather system"
  },
  {
    "cityName": "Kolkata",
    "localityName": "Santoshpur",
    "localityId": "ZWL001039",
    "latitude": 22.502107,
    "longitude": 88.3888972,
    "device_type": "- Rain gauge system"
  },
  {
    "cityName": "Kolkata",
    "localityName": "Liluah",
    "localityId": "ZWL003882",
    "latitude": 22.635342,
    "longitude": 88.3433141,
    "device_type": "- Automated weather system"
  },
  {
    "cityName": "Kolkata",
    "localityName": "Rajarhat",
    "localityId": "ZWL004925",
    "latitude": 22.621505,
    "longitude": 88.4469151,
    "device_type": "- Automated weather system"
  },
  {
    "cityName": "Kolkata",
    "localityName": "Park Street area",
    "localityId": "ZWL005244",
    "latitude": 22.552632,
    "longitude": 88.3628882,
    "device_type": "- Rain gauge system"
  },
  {
    "cityName": "Kolkata",
    "localityName": "Baghajatin Colony",
    "localityId": "ZWL003687",
    "latitude": 22.481243,
    "longitude": 88.3749321,
    "device_type": "- Automated weather system"
  },
  {
    "cityName": "Kolkata",
    "localityName": "Shrirampur",
    "localityId": "ZWL008120",
    "latitude": 22.735733,
    "longitude": 88.3445972,
    "device_type": "- Rain gauge system"
  },
  {
    "cityName": "Kolkata",
    "localityName": "Chhota Jagulia",
    "localityId": "ZWL007514",
    "latitude": 22.759573,
    "longitude": 88.7472152,
    "device_type": "- Rain gauge system"
  },
  {
    "cityName": "Kolkata",
    "localityName": "Dum Dum",
    "localityId": "ZWL003935",
    "latitude": 22.65631,
    "longitude": 88.4236941,
    "device_type": "- Automated weather system"
  },
  {
    "cityName": "Kolkata",
    "localityName": "Kestopur",
    "localityId": "ZWL002931",
    "latitude": 22.597524,
    "longitude": 88.4311141,
    "device_type": "- Automated weather system"
  },
  {
    "cityName": "Kolkata",
    "localityName": "Sodepur",
    "localityId": "ZWL006521",
    "latitude": 22.701254,
    "longitude": 88.3833292,
    "device_type": "- Rain gauge system"
  },
  {
    "cityName": "Kolkata",
    "localityName": "Nimta",
    "localityId": "ZWL005558",
    "latitude": 22.670256,
    "longitude": 88.4135032,
    "device_type": "- Rain gauge system"
  },
  {
    "cityName": "Kolkata",
    "localityName": "Shapoorji",
    "localityId": "ZWL005174",
    "latitude": 22.567623,
    "longitude": 88.4974271,
    "device_type": "- Automated weather system"
  },
  {
    "cityName": "Kolkata",
    "localityName": "Barabazar Market",
    "localityId": "ZWL002488",
    "latitude": 22.57422,
    "longitude": 88.3666821,
    "device_type": "- Automated weather system"
  },
  {
    "cityName": "Kolkata",
    "localityName": "Salt Lake 1",
    "localityId": "ZWL007934",
    "latitude": 22.573829,
    "longitude": 88.4128142,
    "device_type": "- Rain gauge system"
  },
  {
    "cityName": "Kolkata",
    "localityName": "Tangra",
    "localityId": "ZWL001584",
    "latitude": 22.555059,
    "longitude": 88.3881751,
    "device_type": "- Automated weather system"
  },
  {
    "cityName": "Kolkata",
    "localityName": "Gariahat",
    "localityId": "ZWL005429",
    "latitude": 22.514492,
    "longitude": 88.3620002,
    "device_type": "- Rain gauge system"
  },
  {
    "cityName": "Kolkata",
    "localityName": "Santragachi",
    "localityId": "ZWL005121",
    "latitude": 22.621044,
    "longitude": 88.2836051,
    "device_type": "- Automated weather system"
  },
  {
    "cityName": "Kolkata",
    "localityName": "Garia",
    "localityId": "ZWL007830",
    "latitude": 22.469249,
    "longitude": 88.3822612,
    "device_type": "- Rain gauge system"
  },
  {
    "cityName": "Kolkata",
    "localityName": "Chinsurah, Kolkata",
    "localityId": "ZWL008991",
    "latitude": 22.933551,
    "longitude": 88.3986491,
    "device_type": "- Automated weather system"
  },
  {
    "cityName": "Kolkata",
    "localityName": "Kankurgachi",
    "localityId": "ZWL009194",
    "latitude": 22.573467,
    "longitude": 88.3916661,
    "device_type": "- Automated weather system"
  },
  {
    "cityName": "Kolkata",
    "localityName": "Kasba",
    "localityId": "ZWL004722",
    "latitude": 22.521693,
    "longitude": 88.3898441,
    "device_type": "- Automated weather system"
  },
  {
    "cityName": "Mumbai",
    "localityName": "Mira Road East",
    "localityId": "ZWL006536",
    "latitude": 19.27813,
    "longitude": 72.8747221,
    "device_type": "- Automated weather system"
  },
  {
    "cityName": "Mumbai",
    "localityName": "Kandivali West",
    "localityId": "ZWL004934",
    "latitude": 19.212156,
    "longitude": 72.8288502,
    "device_type": "- Rain gauge system"
  },
  {
    "cityName": "Mumbai",
    "localityName": "Boisar, Mumbai",
    "localityId": "ZWL004821",
    "latitude": 19.804797,
    "longitude": 72.7458052,
    "device_type": "- Rain gauge system"
  },
  {
    "cityName": "Mumbai",
    "localityName": "Bhiwandi",
    "localityId": "ZWL007249",
    "latitude": 19.25179,
    "longitude": 73.0873181,
    "device_type": "- Automated weather system"
  },
  {
    "cityName": "Mumbai",
    "localityName": "Panvel",
    "localityId": "ZWL001164",
    "latitude": 18.998845,
    "longitude": 73.1089331,
    "device_type": "- Automated weather system"
  },
  {
    "cityName": "Mumbai",
    "localityName": "Kopar Khairane (Navi Mumbai)",
    "localityId": "ZWL009537",
    "latitude": 19.113909,
    "longitude": 73.0125981,
    "device_type": "- Automated weather system"
  },
  {
    "cityName": "Mumbai",
    "localityName": "Vashi",
    "localityId": "ZWL007275",
    "latitude": 19.067662,
    "longitude": 73.0049872,
    "device_type": "- Rain gauge system"
  },
  {
    "cityName": "Mumbai",
    "localityName": "Titwala, Mumbai",
    "localityId": "ZWL002556",
    "latitude": 19.292555,
    "longitude": 73.2058991,
    "device_type": "- Automated weather system"
  },
  {
    "cityName": "Mumbai",
    "localityName": "Kandivali East",
    "localityId": "ZWL006937",
    "latitude": 19.20073,
    "longitude": 72.8654611,
    "device_type": "- Automated weather system"
  },
  {
    "cityName": "Mumbai",
    "localityName": "Nalasopara",
    "localityId": "ZWL008636",
    "latitude": 19.424433,
    "longitude": 72.8171341,
    "device_type": "- Automated weather system"
  },
  {
    "cityName": "Mumbai",
    "localityName": "Lower Parel",
    "localityId": "ZWL003995",
    "latitude": 19.005114,
    "longitude": 72.8201431,
    "device_type": "- Automated weather system"
  },
  {
    "cityName": "Mumbai",
    "localityName": "Goregaon East",
    "localityId": "ZWL006938",
    "latitude": 19.163093,
    "longitude": 72.8722771,
    "device_type": "- Automated weather system"
  },
  {
    "cityName": "Mumbai",
    "localityName": "Santacruz East",
    "localityId": "ZWL008550",
    "latitude": 19.076131,
    "longitude": 72.8587151,
    "device_type": "- Automated weather system"
  },
  {
    "cityName": "Mumbai",
    "localityName": "Ghatkopar East, Mumbai",
    "localityId": "ZWL004494",
    "latitude": 19.080794,
    "longitude": 72.9222801,
    "device_type": "- Automated weather system"
  },
  {
    "cityName": "Mumbai",
    "localityName": "Palava",
    "localityId": "ZWL003708",
    "latitude": 19.168067,
    "longitude": 73.0746121,
    "device_type": "- Automated weather system"
  },
  {
    "cityName": "Mumbai",
    "localityName": "Malad West",
    "localityId": "ZWL008711",
    "latitude": 19.187022,
    "longitude": 72.8270761,
    "device_type": "- Automated weather system"
  },
  {
    "cityName": "Mumbai",
    "localityName": "Borivali East",
    "localityId": "ZWL005991",
    "latitude": 19.241003,
    "longitude": 72.8659701,
    "device_type": "- Automated weather system"
  },
  {
    "cityName": "Mumbai",
    "localityName": "Kalyan,West,Mumbai",
    "localityId": "ZWL002865",
    "latitude": 19.255127,
    "longitude": 73.1281761,
    "device_type": "- Automated weather system"
  },
  {
    "cityName": "Mumbai",
    "localityName": "Santacruz West",
    "localityId": "ZWL004749",
    "latitude": 19.08261,
    "longitude": 72.8356081,
    "device_type": "- Automated weather system"
  },
  {
    "cityName": "Mumbai",
    "localityName": "Badlapur, Mumbai",
    "localityId": "ZWL001274",
    "latitude": 19.174156,
    "longitude": 73.2257671,
    "device_type": "- Automated weather system"
  },
  {
    "cityName": "Mumbai",
    "localityName": "Ambernath",
    "localityId": "ZWL007699",
    "latitude": 19.199776,
    "longitude": 73.1811761,
    "device_type": "- Automated weather system"
  },
  {
    "cityName": "Mumbai",
    "localityName": "Marine lines",
    "localityId": "ZWL001764",
    "latitude": 18.952178,
    "longitude": 72.8251981,
    "device_type": "- Automated weather system"
  },
  {
    "cityName": "Mumbai",
    "localityName": "Mulund West",
    "localityId": "ZWL002921",
    "latitude": 19.170765,
    "longitude": 72.9422391,
    "device_type": "- Automated weather system"
  },
  {
    "cityName": "Mumbai",
    "localityName": "Airoli",
    "localityId": "ZWL001410",
    "latitude": 19.170339,
    "longitude": 72.9951141,
    "device_type": "- Automated weather system"
  },
  {
    "cityName": "Mumbai",
    "localityName": "Kharghar (Navi Mumbai)",
    "localityId": "ZWL009757",
    "latitude": 19.069735,
    "longitude": 73.0558831,
    "device_type": "- Automated weather system"
  },
  {
    "cityName": "Mumbai",
    "localityName": "Ulhasnagar (Mumbai)",
    "localityId": "ZWL002059",
    "latitude": 19.224136,
    "longitude": 73.1693401,
    "device_type": "- Automated weather system"
  },
  {
    "cityName": "Mumbai",
    "localityName": "Ghatkopar West, Mumbai",
    "localityId": "ZWL001058",
    "latitude": 19.09674,
    "longitude": 72.9045621,
    "device_type": "- Automated weather system"
  },
  {
    "cityName": "Mumbai",
    "localityName": "Bandra West",
    "localityId": "ZWL006995",
    "latitude": 19.068857,
    "longitude": 72.8330001,
    "device_type": "- Automated weather system"
  },
  {
    "cityName": "Mumbai",
    "localityName": "Dadar West",
    "localityId": "ZWL004692",
    "latitude": 19.021199,
    "longitude": 72.8353781,
    "device_type": "- Automated weather system"
  },
  {
    "cityName": "Mumbai",
    "localityName": "Andheri West",
    "localityId": "ZWL007667",
    "latitude": 19.137106,
    "longitude": 72.8348281,
    "device_type": "- Automated weather system"
  },
  {
    "cityName": "Mumbai",
    "localityName": "Vile Parle West",
    "localityId": "ZWL009338",
    "latitude": 19.10956,
    "longitude": 72.8321941,
    "device_type": "- Automated weather system"
  },
  {
    "cityName": "Mumbai",
    "localityName": "Byculla",
    "localityId": "ZWL009167",
    "latitude": 18.974283,
    "longitude": 72.8337121,
    "device_type": "- Automated weather system"
  },
  {
    "cityName": "Mumbai",
    "localityName": "Vasai",
    "localityId": "ZWL006032",
    "latitude": 19.364358,
    "longitude": 72.8366121,
    "device_type": "- Automated weather system"
  },
  {
    "cityName": "Mumbai",
    "localityName": "Kalyan,East (Mumbai)",
    "localityId": "ZWL007397",
    "latitude": 19.221503,
    "longitude": 73.1381111,
    "device_type": "- Automated weather system"
  },
  {
    "cityName": "Mumbai",
    "localityName": "Ulwe, Mumbai",
    "localityId": "ZWL009360",
    "latitude": 18.974217,
    "longitude": 73.0249141,
    "device_type": "- Automated weather system"
  },
  {
    "cityName": "Mumbai",
    "localityName": "Fort",
    "localityId": "ZWL002205",
    "latitude": 18.940613,
    "longitude": 72.8342351,
    "device_type": "- Automated weather system"
  },
  {
    "cityName": "Mumbai",
    "localityName": "Andheri East",
    "localityId": "ZWL008975",
    "latitude": 19.108639,
    "longitude": 72.8744371,
    "device_type": "- Automated weather system"
  },
  {
    "cityName": "Mumbai",
    "localityName": "Chembur",
    "localityId": "ZWL009252",
    "latitude": 19.04984,
    "longitude": 72.9078472,
    "device_type": "- Rain gauge system"
  },
  {
    "cityName": "Mumbai",
    "localityName": "Palghar, Mumbai",
    "localityId": "ZWL002558",
    "latitude": 19.700631,
    "longitude": 72.7630312,
    "device_type": "- Rain gauge system"
  },
  {
    "cityName": "Mumbai",
    "localityName": "Mumbra, Mumbai",
    "localityId": "ZWL002742",
    "latitude": 19.172636,
    "longitude": 73.0237152,
    "device_type": "- Rain gauge system"
  },
  {
    "cityName": "Mumbai",
    "localityName": "Mulund East",
    "localityId": "ZWL004971",
    "latitude": 19.154253,
    "longitude": 72.9624932,
    "device_type": "- Rain gauge system"
  },
  {
    "cityName": "Mumbai",
    "localityName": "Shirdhon, Mumbai",
    "localityId": "ZWL008348",
    "latitude": 19.195881,
    "longitude": 73.1288861,
    "device_type": "- Automated weather system"
  },
  {
    "cityName": "Mumbai",
    "localityName": "Virar",
    "localityId": "ZWL001344",
    "latitude": 19.461784,
    "longitude": 72.7991991,
    "device_type": "- Automated weather system"
  },
  {
    "cityName": "Mumbai",
    "localityName": "Tardeo",
    "localityId": "ZWL007606",
    "latitude": 18.961317,
    "longitude": 72.8055131,
    "device_type": "- Automated weather system"
  },
  {
    "cityName": "Mumbai",
    "localityName": "Bandra East",
    "localityId": "ZWL005697",
    "latitude": 19.064138,
    "longitude": 72.8527372,
    "device_type": "- Rain gauge system"
  },
  {
    "cityName": "Mumbai",
    "localityName": "Thane West",
    "localityId": "ZWL005442",
    "latitude": 19.227309,
    "longitude": 72.9727361,
    "device_type": "- Automated weather system"
  },
  {
    "cityName": "Mumbai",
    "localityName": "Kurla West",
    "localityId": "ZWL004189",
    "latitude": 19.079972,
    "longitude": 72.8815371,
    "device_type": "- Automated weather system"
  },
  {
    "cityName": "Mumbai",
    "localityName": "Goregaon West",
    "localityId": "ZWL005000",
    "latitude": 19.162722,
    "longitude": 72.8416101,
    "device_type": "- Automated weather system"
  },
  {
    "cityName": "Mumbai",
    "localityName": "Hiranandani Estate",
    "localityId": "ZWL002056",
    "latitude": 19.267411,
    "longitude": 72.9670741,
    "device_type": "- Automated weather system"
  },
  {
    "cityName": "Mumbai",
    "localityName": "Dombivli",
    "localityId": "ZWL009826",
    "latitude": 19.210229,
    "longitude": 73.1022721,
    "device_type": "- Automated weather system"
  },
  {
    "cityName": "Mumbai",
    "localityName": "Bhandup West",
    "localityId": "ZWL007889",
    "latitude": 19.151889,
    "longitude": 72.9345531,
    "device_type": "- Automated weather system"
  },
  {
    "cityName": "Mumbai",
    "localityName": "Kamothe",
    "localityId": "ZWL008977",
    "latitude": 19.023359,
    "longitude": 73.0918141,
    "device_type": "- Automated weather system"
  },
  {
    "cityName": "Mumbai",
    "localityName": "Powai, Mumbai",
    "localityId": "ZWL006622",
    "latitude": 19.115248,
    "longitude": 72.9089521,
    "device_type": "- Automated weather system"
  },
  {
    "cityName": "Mumbai",
    "localityName": "Naupada",
    "localityId": "ZWL002074",
    "latitude": 19.188451,
    "longitude": 72.9680011,
    "device_type": "- Automated weather system"
  },
  {
    "cityName": "Mumbai",
    "localityName": "Bhayandar West",
    "localityId": "ZWL008874",
    "latitude": 19.257869,
    "longitude": 72.8047431,
    "device_type": "- Automated weather system"
  },
  {
    "cityName": "Mumbai",
    "localityName": "Vileparle East",
    "localityId": "ZWL001334",
    "latitude": 19.09843,
    "longitude": 72.8649471,
    "device_type": "- Automated weather system"
  },
  {
    "cityName": "Mumbai",
    "localityName": "Sion",
    "localityId": "ZWL008378",
    "latitude": 19.045271,
    "longitude": 72.8646311,
    "device_type": "- Automated weather system"
  },
  {
    "cityName": "Mumbai",
    "localityName": "Nerul (Navi Mumbai)",
    "localityId": "ZWL007690",
    "latitude": 19.031072,
    "longitude": 73.0266471,
    "device_type": "- Automated weather system"
  },
  {
    "cityName": "Mumbai",
    "localityName": "Dahisar West",
    "localityId": "ZWL007706",
    "latitude": 19.255014,
    "longitude": 72.8482671,
    "device_type": "- Automated weather system"
  },
  {
    "cityName": "Mumbai",
    "localityName": "Colaba",
    "localityId": "ZWL005320",
    "latitude": 18.919405,
    "longitude": 72.8243761,
    "device_type": "- Automated weather system"
  },
  {
    "cityName": "Mumbai",
    "localityName": "Mahim",
    "localityId": "ZWL006544",
    "latitude": 19.039256,
    "longitude": 72.8439131,
    "device_type": "- Automated weather system"
  },
  {
    "cityName": "Mumbai",
    "localityName": "Wadala",
    "localityId": "ZWL002686",
    "latitude": 19.017538,
    "longitude": 72.8671381,
    "device_type": "- Automated weather system"
  },
  {
    "cityName": "Mumbai",
    "localityName": "Borivali West",
    "localityId": "ZWL001089",
    "latitude": 19.229714,
    "longitude": 72.8397101,
    "device_type": "- Automated weather system"
  },
  {
    "cityName": "Mumbai",
    "localityName": "Palava Lakeshore,Mumbai",
    "localityId": "ZWL008360",
    "latitude": 19.165716,
    "longitude": 73.1057331,
    "device_type": "- Automated weather system"
  },
  {
    "cityName": "Bengaluru",
    "localityName": "Banashankari",
    "localityId": "ZWL003467",
    "latitude": 12.936787,
    "longitude": 77.5560791,
    "device_type": "- Automated weather system"
  },
  {
    "cityName": "Bengaluru",
    "localityName": "Rajarajeshwari Nagar",
    "localityId": "ZWL004900",
    "latitude": 12.918637,
    "longitude": 77.5054671,
    "device_type": "- Automated weather system"
  },
  {
    "cityName": "Bengaluru",
    "localityName": "JP Nagar",
    "localityId": "ZWL005530",
    "latitude": 12.893441,
    "longitude": 77.5604361,
    "device_type": "- Automated weather system"
  },
  {
    "cityName": "Bengaluru",
    "localityName": "Mahadevapura",
    "localityId": "ZWL007643",
    "latitude": 12.985322,
    "longitude": 77.6875781,
    "device_type": "- Automated weather system"
  },
  {
    "cityName": "Bengaluru",
    "localityName": "Jalahalli",
    "localityId": "ZWL003159",
    "latitude": 13.031518,
    "longitude": 77.5309861,
    "device_type": "- Automated weather system"
  },
  {
    "cityName": "Bengaluru",
    "localityName": "RT Nagar",
    "localityId": "ZWL002736",
    "latitude": 13.021267,
    "longitude": 77.6012341,
    "device_type": "- Automated weather system"
  },
  {
    "cityName": "Bengaluru",
    "localityName": "KR Puram",
    "localityId": "ZWL006369",
    "latitude": 13.016987,
    "longitude": 77.7068191,
    "device_type": "- Automated weather system"
  },
  {
    "cityName": "Bengaluru",
    "localityName": "Electronic City",
    "localityId": "ZWL006274",
    "latitude": 12.833101,
    "longitude": 77.6731821,
    "device_type": "- Automated weather system"
  },
  {
    "cityName": "Bengaluru",
    "localityName": "Vijayanagar",
    "localityId": "ZWL005375",
    "latitude": 12.973219,
    "longitude": 77.5193031,
    "device_type": "- Automated weather system"
  },
  {
    "cityName": "Bengaluru",
    "localityName": "Marathahalli",
    "localityId": "ZWL008600",
    "latitude": 12.955103,
    "longitude": 77.6965071,
    "device_type": "- Automated weather system"
  },
  {
    "cityName": "Bengaluru",
    "localityName": "Sarjapur road",
    "localityId": "ZWL002292",
    "latitude": 12.900225,
    "longitude": 77.6974511,
    "device_type": "- Automated weather system"
  },
  {
    "cityName": "Bengaluru",
    "localityName": "Brookefields",
    "localityId": "ZWL004341",
    "latitude": 12.96742,
    "longitude": 77.7178511,
    "device_type": "- Automated weather system"
  },
  {
    "cityName": "Bengaluru",
    "localityName": "Whitefield",
    "localityId": "ZWL007633",
    "latitude": 12.975224,
    "longitude": 77.7404221,
    "device_type": "- Automated weather system"
  },
  {
    "cityName": "Bengaluru",
    "localityName": "Nagavara",
    "localityId": "ZWL009212",
    "latitude": 13.04837,
    "longitude": 77.6255341,
    "device_type": "- Automated weather system"
  },
  {
    "cityName": "Bengaluru",
    "localityName": "New BEL Road",
    "localityId": "ZWL007628",
    "latitude": 13.040495,
    "longitude": 77.5694201,
    "device_type": "- Automated weather system"
  },
  {
    "cityName": "Bengaluru",
    "localityName": "Koramangala",
    "localityId": "ZWL001156",
    "latitude": 12.933756,
    "longitude": 77.6258251,
    "device_type": "- Automated weather system"
  },
  {
    "cityName": "Bengaluru",
    "localityName": "Bannerghatta Road, Bangalore",
    "localityId": "ZWL004924",
    "latitude": 12.891397,
    "longitude": 77.6081761,
    "device_type": "- Automated weather system"
  },
  {
    "cityName": "Bengaluru",
    "localityName": "Aavalahalli",
    "localityId": "ZWL009229",
    "latitude": 13.034488,
    "longitude": 77.7122411,
    "device_type": "- Automated weather system"
  },
  {
    "cityName": "Bengaluru",
    "localityName": "BIAL Airport Road",
    "localityId": "ZWL005576",
    "latitude": 13.178996,
    "longitude": 77.6300051,
    "device_type": "- Automated weather system"
  },
  {
    "cityName": "Bengaluru",
    "localityName": "Yelahanka",
    "localityId": "ZWL006658",
    "latitude": 13.111809,
    "longitude": 77.5892761,
    "device_type": "- Automated weather system"
  },
  {
    "cityName": "Bengaluru",
    "localityName": "Kadugodi",
    "localityId": "ZWL002882",
    "latitude": 13.007511,
    "longitude": 77.7632091,
    "device_type": "- Automated weather system"
  },
  {
    "cityName": "Bengaluru",
    "localityName": "Kammanahalli",
    "localityId": "ZWL006631",
    "latitude": 13.01605,
    "longitude": 77.6617351,
    "device_type": "- Automated weather system"
  },
  {
    "cityName": "Bengaluru",
    "localityName": "HSR Layout",
    "localityId": "ZWL001196",
    "latitude": 12.908482,
    "longitude": 77.6417731,
    "device_type": "- Automated weather system"
  },
  {
    "cityName": "Bengaluru",
    "localityName": "BTM Layout",
    "localityId": "ZWL006600",
    "latitude": 12.916931,
    "longitude": 77.6088971,
    "device_type": "- Automated weather system"
  },
  {
    "cityName": "Bengaluru",
    "localityName": "Varthur",
    "localityId": "ZWL006854",
    "latitude": 12.936055,
    "longitude": 77.7234151,
    "device_type": "- Automated weather system"
  },
  {
    "cityName": "Bengaluru",
    "localityName": "Indiranagar",
    "localityId": "ZWL001273",
    "latitude": 12.952636,
    "longitude": 77.6530591,
    "device_type": "- Automated weather system"
  },
  {
    "cityName": "Bengaluru",
    "localityName": "Jayanagar",
    "localityId": "ZWL008105",
    "latitude": 12.944441,
    "longitude": 77.5810031,
    "device_type": "- Automated weather system"
  },
  {
    "cityName": "Bengaluru",
    "localityName": "Sahakaranagar",
    "localityId": "ZWL005206",
    "latitude": 13.059918,
    "longitude": 77.5913441,
    "device_type": "- Automated weather system"
  },
  {
    "cityName": "Bengaluru",
    "localityName": "Devanahalli, Bangalore",
    "localityId": "ZWL008797",
    "latitude": 13.258381,
    "longitude": 77.7161831,
    "device_type": "- Automated weather system"
  },
  {
    "cityName": "Bengaluru",
    "localityName": "MG Road",
    "localityId": "ZWL001962",
    "latitude": 12.982689,
    "longitude": 77.6080751,
    "device_type": "- Automated weather system"
  },
  {
    "cityName": "Bengaluru",
    "localityName": "Rajajinagar",
    "localityId": "ZWL006844",
    "latitude": 12.993217,
    "longitude": 77.5579031,
    "device_type": "- Automated weather system"
  },
  {
    "cityName": "Bengaluru",
    "localityName": "Bellandur",
    "localityId": "ZWL004164",
    "latitude": 12.936225,
    "longitude": 77.6650591,
    "device_type": "- Automated weather system"
  },
  {
    "cityName": "Pune",
    "localityName": "NIGDI(Pune)",
    "localityId": "ZWL007698",
    "latitude": 18.646511,
    "longitude": 73.7754111,
    "device_type": "- Automated weather system"
  },
  {
    "cityName": "Pune",
    "localityName": "Bibvewadi (Pune)",
    "localityId": "ZWL005773",
    "latitude": 18.492332,
    "longitude": 73.8619391,
    "device_type": "- Automated weather system"
  },
  {
    "cityName": "Pune",
    "localityName": "Nanded-Nahre",
    "localityId": "ZWL009577",
    "latitude": 18.453179,
    "longitude": 73.8110771,
    "device_type": "- Automated weather system"
  },
  {
    "cityName": "Pune",
    "localityName": "Bhosari (Pune)",
    "localityId": "ZWL002253",
    "latitude": 18.643893,
    "longitude": 73.8586531,
    "device_type": "- Automated weather system"
  },
  {
    "cityName": "Pune",
    "localityName": "Camp Area",
    "localityId": "ZWL003498",
    "latitude": 18.513693,
    "longitude": 73.8772931,
    "device_type": "- Automated weather system"
  },
  {
    "cityName": "Pune",
    "localityName": "Magarpatta",
    "localityId": "ZWL004311",
    "latitude": 18.519482,
    "longitude": 73.9343601,
    "device_type": "- Automated weather system"
  },
  {
    "cityName": "Pune",
    "localityName": "Pimpri",
    "localityId": "ZWL007801",
    "latitude": 18.625381,
    "longitude": 73.7911942,
    "device_type": "- Rain gauge system"
  },
  {
    "cityName": "Pune",
    "localityName": "Yerwada",
    "localityId": "ZWL008134",
    "latitude": 18.544659,
    "longitude": 73.8694991,
    "device_type": "- Automated weather system"
  },
  {
    "cityName": "Pune",
    "localityName": "Kalyani Nagar (Pune)",
    "localityId": "ZWL009625",
    "latitude": 18.546538,
    "longitude": 73.9065941,
    "device_type": "- Automated weather system"
  },
  {
    "cityName": "Pune",
    "localityName": "Sus, Pune",
    "localityId": "ZWL001627",
    "latitude": 18.564293,
    "longitude": 73.7538791,
    "device_type": "- Automated weather system"
  },
  {
    "cityName": "Pune",
    "localityName": "Bavdhan",
    "localityId": "ZWL006236",
    "latitude": 18.51473,
    "longitude": 73.7779221,
    "device_type": "- Automated weather system"
  },
  {
    "cityName": "Pune",
    "localityName": "Viman nagar",
    "localityId": "ZWL006743",
    "latitude": 18.564998,
    "longitude": 73.9115511,
    "device_type": "- Automated weather system"
  },
  {
    "cityName": "Pune",
    "localityName": "Aundh (Pune)",
    "localityId": "ZWL004927",
    "latitude": 18.559795,
    "longitude": 73.8071231,
    "device_type": "- Automated weather system"
  },
  {
    "cityName": "Pune",
    "localityName": "Katraj (Pune)",
    "localityId": "ZWL008370",
    "latitude": 18.451394,
    "longitude": 73.8476421,
    "device_type": "- Automated weather system"
  },
  {
    "cityName": "Pune",
    "localityName": "Pimple Saudagar_Pune",
    "localityId": "ZWL004523",
    "latitude": 18.600897,
    "longitude": 73.7984411,
    "device_type": "- Automated weather system"
  },
  {
    "cityName": "Pune",
    "localityName": "Dhanori",
    "localityId": "ZWL001778",
    "latitude": 18.588936,
    "longitude": 73.9077111,
    "device_type": "- Automated weather system"
  },
  {
    "cityName": "Pune",
    "localityName": "Dehu Road",
    "localityId": "ZWL003386",
    "latitude": 18.695874,
    "longitude": 73.7403651,
    "device_type": "- Automated weather system"
  },
  {
    "cityName": "Pune",
    "localityName": "Koregaon Park (Pune)",
    "localityId": "ZWL009157",
    "latitude": 18.535326,
    "longitude": 73.8839761,
    "device_type": "- Automated weather system"
  },
  {
    "cityName": "Pune",
    "localityName": "Hinjewadi - Phase 2",
    "localityId": "ZWL004962",
    "latitude": 18.585004,
    "longitude": 73.7063191,
    "device_type": "- Automated weather system"
  },
  {
    "cityName": "Pune",
    "localityName": "Wakad_Pune",
    "localityId": "ZWL005340",
    "latitude": 18.599555,
    "longitude": 73.7746522,
    "device_type": "- Rain gauge system"
  },
  {
    "cityName": "Pune",
    "localityName": "Manas Lake, Pune",
    "localityId": "ZWL009671",
    "latitude": 18.491382,
    "longitude": 73.7489531,
    "device_type": "- Automated weather system"
  },
  {
    "cityName": "Pune",
    "localityName": "Sadashiv Peth",
    "localityId": "ZWL008921",
    "latitude": 18.511357,
    "longitude": 73.8569962,
    "device_type": "- Rain gauge system"
  },
  {
    "cityName": "Pune",
    "localityName": "Ghorpadi (Pune)",
    "localityId": "ZWL008940",
    "latitude": 18.519767,
    "longitude": 73.8972692,
    "device_type": "- Rain gauge system"
  },
  {
    "cityName": "Pune",
    "localityName": "Pashan (Pune)",
    "localityId": "ZWL009874",
    "latitude": 18.527587,
    "longitude": 73.7894591,
    "device_type": "- Automated weather system"
  },
  {
    "cityName": "Pune",
    "localityName": "SP Infocity, Pune",
    "localityId": "ZWL006660",
    "latitude": 18.487813,
    "longitude": 73.9471872,
    "device_type": "- Rain gauge system"
  },
  {
    "cityName": "Pune",
    "localityName": "Manjri,Pune",
    "localityId": "ZWL003813",
    "latitude": 18.509232,
    "longitude": 73.9783642,
    "device_type": "- Rain gauge system"
  },
  {
    "cityName": "Pune",
    "localityName": "Khadki, Pune",
    "localityId": "ZWL007471",
    "latitude": 18.563289,
    "longitude": 73.8350231,
    "device_type": "- Automated weather system"
  },
  {
    "cityName": "Pune",
    "localityName": "Kothrud (Pune)",
    "localityId": "ZWL009602",
    "latitude": 18.504984,
    "longitude": 73.8115871,
    "device_type": "- Automated weather system"
  },
  {
    "cityName": "Pune",
    "localityName": "Sinhagad Road(Pune)",
    "localityId": "ZWL002208",
    "latitude": 18.477264,
    "longitude": 73.8264371,
    "device_type": "- Automated weather system"
  },
  {
    "cityName": "Pune",
    "localityName": "New Sangvi, Pune",
    "localityId": "ZWL007895",
    "latitude": 18.578959,
    "longitude": 73.8234372,
    "device_type": "- Rain gauge system"
  },
  {
    "cityName": "Pune",
    "localityName": "Nimgaon, Pune",
    "localityId": "ZWL003099",
    "latitude": 18.794589,
    "longitude": 73.9100161,
    "device_type": "- Automated weather system"
  },
  {
    "cityName": "Pune",
    "localityName": "Wagholi",
    "localityId": "ZWL004575",
    "latitude": 18.57931,
    "longitude": 73.9721222,
    "device_type": "- Rain gauge system"
  },
  {
    "cityName": "Pune",
    "localityName": "Keshavnagar, Pune",
    "localityId": "ZWL004513",
    "latitude": 18.537273,
    "longitude": 73.9445211,
    "device_type": "- Automated weather system"
  },
  {
    "cityName": "Pune",
    "localityName": "Baner (Pune)",
    "localityId": "ZWL008983",
    "latitude": 18.567954,
    "longitude": 73.7834751,
    "device_type": "- Automated weather system"
  },
  {
    "cityName": "Pune",
    "localityName": "Warje (Pune)",
    "localityId": "ZWL005520",
    "latitude": 18.472703,
    "longitude": 73.7884001,
    "device_type": "- Automated weather system"
  },
  {
    "cityName": "Pune",
    "localityName": "Mundwa, Pune",
    "localityId": "ZWL003300",
    "latitude": 18.53522,
    "longitude": 73.9185492,
    "device_type": "- Rain gauge system"
  },
  {
    "cityName": "Pune",
    "localityName": "Chakan",
    "localityId": "ZWL001963",
    "latitude": 18.752436,
    "longitude": 73.8374841,
    "device_type": "- Automated weather system"
  },
  {
    "cityName": "Pune",
    "localityName": "Shivaji Nagar (Pune)",
    "localityId": "ZWL002422",
    "latitude": 18.526724,
    "longitude": 73.8416582,
    "device_type": "- Rain gauge system"
  },
  {
    "cityName": "Pune",
    "localityName": "Yewalewadi, Pune",
    "localityId": "ZWL005088",
    "latitude": 18.439804,
    "longitude": 73.9024332,
    "device_type": "- Rain gauge system"
  },
  {
    "cityName": "Pune",
    "localityName": "Bopkhel, Pune",
    "localityId": "ZWL003014",
    "latitude": 18.586306,
    "longitude": 73.8596021,
    "device_type": "- Automated weather system"
  },
  {
    "cityName": "Pune",
    "localityName": "Kharadi",
    "localityId": "ZWL001472",
    "latitude": 18.55239,
    "longitude": 73.9419011,
    "device_type": "- Automated weather system"
  },
  {
    "cityName": "Pune",
    "localityName": "Talegaon Dabhade",
    "localityId": "ZWL004339",
    "latitude": 18.738724,
    "longitude": 73.6757011,
    "device_type": "- Automated weather system"
  },
  {
    "cityName": "Pune",
    "localityName": "Hinjewadi - Phase 1",
    "localityId": "ZWL003817",
    "latitude": 18.596583,
    "longitude": 73.7333121,
    "device_type": "- Automated weather system"
  },
  {
    "cityName": "Pune",
    "localityName": "Wanowrie-Kondhwa",
    "localityId": "ZWL007925",
    "latitude": 18.477085,
    "longitude": 73.9009661,
    "device_type": "- Automated weather system"
  },
  {
    "cityName": "Hyderabad",
    "localityName": "Nagole",
    "localityId": "ZWL003370",
    "latitude": 17.359969,
    "longitude": 78.5657241,
    "device_type": "- Automated weather system"
  },
  {
    "cityName": "Hyderabad",
    "localityName": "Attapur",
    "localityId": "ZWL002088",
    "latitude": 17.380875,
    "longitude": 78.4157171,
    "device_type": "- Automated weather system"
  },
  {
    "cityName": "Hyderabad",
    "localityName": "Peerzadiguda",
    "localityId": "ZWL006702",
    "latitude": 17.411644,
    "longitude": 78.5782201,
    "device_type": "- Automated weather system"
  },
  {
    "cityName": "Hyderabad",
    "localityName": "Begumpet",
    "localityId": "ZWL008776",
    "latitude": 17.442659,
    "longitude": 78.4820092,
    "device_type": "- Rain gauge system"
  },
  {
    "cityName": "Hyderabad",
    "localityName": "Suraram, Hyderabad",
    "localityId": "ZWL003918",
    "latitude": 17.559752,
    "longitude": 78.4374671,
    "device_type": "- Automated weather system"
  },
  {
    "cityName": "Hyderabad",
    "localityName": "Banjara Hills",
    "localityId": "ZWL004079",
    "latitude": 17.419238,
    "longitude": 78.4384741,
    "device_type": "- Automated weather system"
  },
  {
    "cityName": "Hyderabad",
    "localityName": "Alwal",
    "localityId": "ZWL008309",
    "latitude": 17.508852,
    "longitude": 78.5074021,
    "device_type": "- Automated weather system"
  },
  {
    "cityName": "Hyderabad",
    "localityName": "Sainikpuri",
    "localityId": "ZWL002433",
    "latitude": 17.489079,
    "longitude": 78.5589102,
    "device_type": "- Rain gauge system"
  },
  {
    "cityName": "Hyderabad",
    "localityName": "Saroor Nagar",
    "localityId": "ZWL007390",
    "latitude": 17.348264,
    "longitude": 78.5304761,
    "device_type": "- Automated weather system"
  },
  {
    "cityName": "Hyderabad",
    "localityName": "Karkhana",
    "localityId": "ZWL004767",
    "latitude": 17.467142,
    "longitude": 78.4966961,
    "device_type": "- Automated weather system"
  },
  {
    "cityName": "Hyderabad",
    "localityName": "Kompally",
    "localityId": "ZWL006016",
    "latitude": 17.533309,
    "longitude": 78.4899651,
    "device_type": "- Automated weather system"
  },
  {
    "cityName": "Hyderabad",
    "localityName": "Himayatnagar",
    "localityId": "ZWL003283",
    "latitude": 17.402602,
    "longitude": 78.4872291,
    "device_type": "- Automated weather system"
  },
  {
    "cityName": "Hyderabad",
    "localityName": "Medchal Road",
    "localityId": "ZWL007311",
    "latitude": 17.637191,
    "longitude": 78.4803921,
    "device_type": "- Automated weather system"
  },
  {
    "cityName": "Hyderabad",
    "localityName": "Kukatpally",
    "localityId": "ZWL005919",
    "latitude": 17.495894,
    "longitude": 78.4162591,
    "device_type": "- Automated weather system"
  },
  {
    "cityName": "Hyderabad",
    "localityName": "Amberpet",
    "localityId": "ZWL001822",
    "latitude": 17.407658,
    "longitude": 78.5217031,
    "device_type": "- Automated weather system"
  },
  {
    "cityName": "Hyderabad",
    "localityName": "Jeedimetla",
    "localityId": "ZWL008208",
    "latitude": 17.495621,
    "longitude": 78.4502811,
    "device_type": "- Automated weather system"
  },
  {
    "cityName": "Hyderabad",
    "localityName": "Gachibowli",
    "localityId": "ZWL001362",
    "latitude": 17.452114,
    "longitude": 78.3514861,
    "device_type": "- Automated weather system"
  },
  {
    "cityName": "Hyderabad",
    "localityName": "LB Nagar",
    "localityId": "ZWL002162",
    "latitude": 17.345727,
    "longitude": 78.5570621,
    "device_type": "- Automated weather system"
  },
  {
    "cityName": "Hyderabad",
    "localityName": "Dilsukhnagar",
    "localityId": "ZWL009712",
    "latitude": 17.370431,
    "longitude": 78.5361841,
    "device_type": "- Automated weather system"
  },
  {
    "cityName": "Hyderabad",
    "localityName": "Masab Tank",
    "localityId": "ZWL005963",
    "latitude": 17.398217,
    "longitude": 78.4622582,
    "device_type": "- Rain gauge system"
  },
  {
    "cityName": "Hyderabad",
    "localityName": "Bachupally",
    "localityId": "ZWL008297",
    "latitude": 17.544887,
    "longitude": 78.3599751,
    "device_type": "- Automated weather system"
  },
  {
    "cityName": "Hyderabad",
    "localityName": "Manikonda",
    "localityId": "ZWL005424",
    "latitude": 17.40593,
    "longitude": 78.3883801,
    "device_type": "- Automated weather system"
  },
  {
    "cityName": "Hyderabad",
    "localityName": "Shamshabad",
    "localityId": "ZWL008585",
    "latitude": 17.257432,
    "longitude": 78.3879201,
    "device_type": "- Automated weather system"
  },
  {
    "cityName": "Hyderabad",
    "localityName": "Miyapur",
    "localityId": "ZWL008599",
    "latitude": 17.500034,
    "longitude": 78.3426702,
    "device_type": "- Rain gauge system"
  },
  {
    "cityName": "Hyderabad",
    "localityName": "Hayath Nagar, Hyderabad",
    "localityId": "ZWL006535",
    "latitude": 17.32662,
    "longitude": 78.6092882,
    "device_type": "- Rain gauge system"
  },
  {
    "cityName": "Hyderabad",
    "localityName": "Sangareddy, Hyderabad",
    "localityId": "ZWL006545",
    "latitude": 17.598038,
    "longitude": 78.0913461,
    "device_type": "- Automated weather system"
  },
  {
    "cityName": "Hyderabad",
    "localityName": "JNTU",
    "localityId": "ZWL009719",
    "latitude": 17.485166,
    "longitude": 78.3897751,
    "device_type": "- Automated weather system"
  },
  {
    "cityName": "Hyderabad",
    "localityName": "Serilingampally",
    "localityId": "ZWL008890",
    "latitude": 17.485245,
    "longitude": 78.3139161,
    "device_type": "- Automated weather system"
  },
  {
    "cityName": "Hyderabad",
    "localityName": "Nizampet",
    "localityId": "ZWL007119",
    "latitude": 17.509398,
    "longitude": 78.3903642,
    "device_type": "- Rain gauge system"
  },
  {
    "cityName": "Hyderabad",
    "localityName": "Q City, Hyderabad",
    "localityId": "ZWL004747",
    "latitude": 17.421788,
    "longitude": 78.3188681,
    "device_type": "- Automated weather system"
  },
  {
    "cityName": "Hyderabad",
    "localityName": "Madhapur",
    "localityId": "ZWL004802",
    "latitude": 17.441185,
    "longitude": 78.3984161,
    "device_type": "- Automated weather system"
  },
  {
    "cityName": "Hyderabad",
    "localityName": "Narayanguda",
    "localityId": "ZWL004665",
    "latitude": 17.39212,
    "longitude": 78.4944431,
    "device_type": "- Automated weather system"
  },
  {
    "cityName": "Hyderabad",
    "localityName": "ECIL",
    "localityId": "ZWL005999",
    "latitude": 17.460327,
    "longitude": 78.5679241,
    "device_type": "- Automated weather system"
  },
  {
    "cityName": "Hyderabad",
    "localityName": "Toli Chowki",
    "localityId": "ZWL003360",
    "latitude": 17.398121,
    "longitude": 78.4212381,
    "device_type": "- Automated weather system"
  },
  {
    "cityName": "Hyderabad",
    "localityName": "Kondapur",
    "localityId": "ZWL007187",
    "latitude": 17.472485,
    "longitude": 78.3678541,
    "device_type": "- Automated weather system"
  },
  {
    "cityName": "Hyderabad",
    "localityName": "Charminar",
    "localityId": "ZWL007344",
    "latitude": 17.375037,
    "longitude": 78.4544991,
    "device_type": "- Automated weather system"
  },
  {
    "cityName": "Hyderabad",
    "localityName": "Sivarampalli",
    "localityId": "ZWL008438",
    "latitude": 17.345995,
    "longitude": 78.4392831,
    "device_type": "- Automated weather system"
  },
  {
    "cityName": "Hyderabad",
    "localityName": "Tarnaka",
    "localityId": "ZWL005494",
    "latitude": 17.431829,
    "longitude": 78.5509402,
    "device_type": "- Rain gauge system"
  },
  {
    "cityName": "Hyderabad",
    "localityName": "Moosapet",
    "localityId": "ZWL009519",
    "latitude": 17.453292,
    "longitude": 78.4211261,
    "device_type": "- Automated weather system"
  },
  {
    "cityName": "Hyderabad",
    "localityName": "Patancheru, Hyderabad",
    "localityId": "ZWL001687",
    "latitude": 17.542613,
    "longitude": 78.2765292,
    "device_type": "- Rain gauge system"
  },
  {
    "cityName": "Hyderabad",
    "localityName": "Vanasthali Puram",
    "localityId": "ZWL005569",
    "latitude": 17.318241,
    "longitude": 78.5449891,
    "device_type": "- Automated weather system"
  },
  {
    "cityName": "Hyderabad",
    "localityName": "Ameerpet",
    "localityId": "ZWL003027",
    "latitude": 17.434737,
    "longitude": 78.4466181,
    "device_type": "- Automated weather system"
  },
  {
    "cityName": "Hyderabad",
    "localityName": "Uppal",
    "localityId": "ZWL001337",
    "latitude": 17.403149,
    "longitude": 78.5541061,
    "device_type": "- Automated weather system"
  },
  {
    "cityName": "Hyderabad",
    "localityName": "Malakpet",
    "localityId": "ZWL001579",
    "latitude": 17.371621,
    "longitude": 78.5026721,
    "device_type": "- Automated weather system"
  },
  {
    "cityName": "Hyderabad",
    "localityName": "Hafiz Baba Nagar",
    "localityId": "ZWL006699",
    "latitude": 17.338717,
    "longitude": 78.4975902,
    "device_type": "- Rain gauge system"
  },
  {
    "cityName": "Hyderabad",
    "localityName": "Mokila, Hyderabad",
    "localityId": "ZWL008512",
    "latitude": 17.436228,
    "longitude": 78.1900721,
    "device_type": "- Automated weather system"
  },
  {
    "cityName": "Chennai",
    "localityName": "Potheri",
    "localityId": "ZWL006789",
    "latitude": 12.799983,
    "longitude": 80.0298651,
    "device_type": "- Automated weather system"
  },
  {
    "cityName": "Chennai",
    "localityName": "Pallavaram",
    "localityId": "ZWL004297",
    "latitude": 12.973055,
    "longitude": 80.1512712,
    "device_type": "- Rain gauge system"
  },
  {
    "cityName": "Chennai",
    "localityName": "Nungambakkam",
    "localityId": "ZWL005190",
    "latitude": 13.060471,
    "longitude": 80.2558871,
    "device_type": "- Automated weather system"
  },
  {
    "cityName": "Chennai",
    "localityName": "Anna Nagar, Chennai",
    "localityId": "ZWL003967",
    "latitude": 13.086884,
    "longitude": 80.2066022,
    "device_type": "- Rain gauge system"
  },
  {
    "cityName": "Chennai",
    "localityName": "Perambur",
    "localityId": "ZWL008996",
    "latitude": 13.121741,
    "longitude": 80.2250581,
    "device_type": "- Automated weather system"
  },
  {
    "cityName": "Chennai",
    "localityName": "Mogappair, Chennai",
    "localityId": "ZWL005857",
    "latitude": 13.080365,
    "longitude": 80.1757241,
    "device_type": "- Automated weather system"
  },
  {
    "cityName": "Chennai",
    "localityName": "Royapuram",
    "localityId": "ZWL006232",
    "latitude": 13.136635,
    "longitude": 80.2895352,
    "device_type": "- Rain gauge system"
  },
  {
    "cityName": "Chennai",
    "localityName": "Mugalivakkam",
    "localityId": "ZWL008548",
    "latitude": 13.014886,
    "longitude": 80.1524552,
    "device_type": "- Rain gauge system"
  },
  {
    "cityName": "Chennai",
    "localityName": "Porur",
    "localityId": "ZWL006053",
    "latitude": 13.048069,
    "longitude": 80.1581631,
    "device_type": "- Automated weather system"
  },
  {
    "cityName": "Chennai",
    "localityName": "Redhills",
    "localityId": "ZWL001398",
    "latitude": 13.191443,
    "longitude": 80.1812251,
    "device_type": "- Automated weather system"
  },
  {
    "cityName": "Chennai",
    "localityName": "Tambaram",
    "localityId": "ZWL001701",
    "latitude": 12.934834,
    "longitude": 80.1018241,
    "device_type": "- Automated weather system"
  },
  {
    "cityName": "Chennai",
    "localityName": "Avadi",
    "localityId": "ZWL008876",
    "latitude": 13.125301,
    "longitude": 80.0697761,
    "device_type": "- Automated weather system"
  },
  {
    "cityName": "Chennai",
    "localityName": "Kilpauk",
    "localityId": "ZWL003387",
    "latitude": 13.080772,
    "longitude": 80.2480181,
    "device_type": "- Automated weather system"
  },
  {
    "cityName": "Chennai",
    "localityName": "Ashok Nagar (CHENNAI)",
    "localityId": "ZWL007059",
    "latitude": 13.02268,
    "longitude": 80.2002861,
    "device_type": "- Automated weather system"
  },
  {
    "cityName": "Chennai",
    "localityName": "Adyar",
    "localityId": "ZWL006520",
    "latitude": 12.993947,
    "longitude": 80.2471741,
    "device_type": "- Automated weather system"
  },
  {
    "cityName": "Chennai",
    "localityName": "Alwarpet",
    "localityId": "ZWL001210",
    "latitude": 13.032366,
    "longitude": 80.2576252,
    "device_type": "- Rain gauge system"
  },
  {
    "cityName": "Chennai",
    "localityName": "Selaiyur",
    "localityId": "ZWL007171",
    "latitude": 12.91657,
    "longitude": 80.1343481,
    "device_type": "- Automated weather system"
  },
  {
    "cityName": "Chennai",
    "localityName": "Thandalam, Chennai",
    "localityId": "ZWL006329",
    "latitude": 12.863785,
    "longitude": 79.9478862,
    "device_type": "- Rain gauge system"
  },
  {
    "cityName": "Chennai",
    "localityName": "Sholinganallur",
    "localityId": "ZWL004233",
    "latitude": 12.921608,
    "longitude": 80.2337271,
    "device_type": "- Automated weather system"
  },
  {
    "cityName": "Chennai",
    "localityName": "Ambattur",
    "localityId": "ZWL007209",
    "latitude": 13.117566,
    "longitude": 80.1466672,
    "device_type": "- Rain gauge system"
  },
  {
    "cityName": "Chennai",
    "localityName": "Medavakkam",
    "localityId": "ZWL003452",
    "latitude": 12.931197,
    "longitude": 80.1823271,
    "device_type": "- Automated weather system"
  },
  {
    "cityName": "Chennai",
    "localityName": "Poonamallee",
    "localityId": "ZWL007176",
    "latitude": 13.052763,
    "longitude": 80.0907631,
    "device_type": "- Automated weather system"
  },
  {
    "cityName": "Chennai",
    "localityName": "Minjur, Chennai",
    "localityId": "ZWL009897",
    "latitude": 13.282298,
    "longitude": 80.2666161,
    "device_type": "- Automated weather system"
  },
  {
    "cityName": "Chennai",
    "localityName": "Urapakkam",
    "localityId": "ZWL004882",
    "latitude": 12.878957,
    "longitude": 80.0703071,
    "device_type": "- Automated weather system"
  },
  {
    "cityName": "Chennai",
    "localityName": "Velachery",
    "localityId": "ZWL006156",
    "latitude": 12.9893,
    "longitude": 80.1999882,
    "device_type": "- Rain gauge system"
  },
  {
    "cityName": "Chennai",
    "localityName": "Navallur",
    "localityId": "ZWL001141",
    "latitude": 12.841923,
    "longitude": 80.2090252,
    "device_type": "- Rain gauge system"
  },
  {
    "cityName": "Chennai",
    "localityName": "Vadapalani",
    "localityId": "ZWL004431",
    "latitude": 13.06516,
    "longitude": 80.2079171,
    "device_type": "- Automated weather system"
  },
  {
    "cityName": "Chennai",
    "localityName": "T Nagar",
    "localityId": "ZWL001516",
    "latitude": 13.026256,
    "longitude": 80.2281202,
    "device_type": "- Rain gauge system"
  },
  {
    "cityName": "Lucknow",
    "localityName": "Hazratganj",
    "localityId": "ZWL003425",
    "latitude": 26.844819,
    "longitude": 80.9408332,
    "device_type": "- Rain gauge system"
  },
  {
    "cityName": "Lucknow",
    "localityName": "Aminabad",
    "localityId": "ZWL006490",
    "latitude": 26.85677,
    "longitude": 80.9251032,
    "device_type": "- Rain gauge system"
  },
  {
    "cityName": "Lucknow",
    "localityName": "Chowk",
    "localityId": "ZWL009091",
    "latitude": 26.873686,
    "longitude": 80.8945022,
    "device_type": "- Rain gauge system"
  },
  {
    "cityName": "Lucknow",
    "localityName": "Telibagh, Lucknow",
    "localityId": "ZWL003030",
    "latitude": 26.776664,
    "longitude": 80.9367552,
    "device_type": "- Rain gauge system"
  },
  {
    "cityName": "Lucknow",
    "localityName": "Husainganj",
    "localityId": "ZWL004978",
    "latitude": 26.83697,
    "longitude": 80.9261102,
    "device_type": "- Rain gauge system"
  },
  {
    "cityName": "Lucknow",
    "localityName": "Jankipuram",
    "localityId": "ZWL009177",
    "latitude": 26.926427,
    "longitude": 80.9368842,
    "device_type": "- Rain gauge system"
  },
  {
    "cityName": "Lucknow",
    "localityName": "Arjunganj",
    "localityId": "ZWL004436",
    "latitude": 26.794554,
    "longitude": 80.9991122,
    "device_type": "- Rain gauge system"
  },
  {
    "cityName": "Lucknow",
    "localityName": "Chinhat, Lucknow",
    "localityId": "ZWL005470",
    "latitude": 26.878323,
    "longitude": 81.0382992,
    "device_type": "- Rain gauge system"
  },
  {
    "cityName": "Lucknow",
    "localityName": "Mahanagar",
    "localityId": "ZWL001500",
    "latitude": 26.886387,
    "longitude": 80.9606412,
    "device_type": "- Rain gauge system"
  },
  {
    "cityName": "Lucknow",
    "localityName": "Ashiyana",
    "localityId": "ZWL003371",
    "latitude": 26.79051,
    "longitude": 80.9138552,
    "device_type": "- Rain gauge system"
  },
  {
    "cityName": "Lucknow",
    "localityName": "Indira Nagar, Lucknow",
    "localityId": "ZWL003635",
    "latitude": 26.883684,
    "longitude": 80.9902902,
    "device_type": "- Rain gauge system"
  },
  {
    "cityName": "Lucknow",
    "localityName": "Vasant Kunj, Lucknow",
    "localityId": "ZWL003320",
    "latitude": 26.877121,
    "longitude": 80.8784472,
    "device_type": "- Rain gauge system"
  },
  {
    "cityName": "Lucknow",
    "localityName": "Rajajipuram",
    "localityId": "ZWL009682",
    "latitude": 26.842055,
    "longitude": 80.8738682,
    "device_type": "- Rain gauge system"
  },
  {
    "cityName": "Lucknow",
    "localityName": "Gomti Nagar",
    "localityId": "ZWL002273",
    "latitude": 26.850582,
    "longitude": 80.9998752,
    "device_type": "- Rain gauge system"
  },
  {
    "cityName": "Lucknow",
    "localityName": "Alambagh",
    "localityId": "ZWL002331",
    "latitude": 26.810769,
    "longitude": 80.9048642,
    "device_type": "- Rain gauge system"
  },
  {
    "cityName": "Lucknow",
    "localityName": "Aliganj, Lucknow",
    "localityId": "ZWL007731",
    "latitude": 26.890082,
    "longitude": 80.9420072,
    "device_type": "- Rain gauge system"
  },
  {
    "cityName": "Lucknow",
    "localityName": "Kalyanpur",
    "localityId": "ZWL007011",
    "latitude": 26.907206,
    "longitude": 80.9741432,
    "device_type": "- Rain gauge system"
  },
  {
    "cityName": "Kochi",
    "localityName": "Eroor",
    "localityId": "ZWL003768",
    "latitude": 9.929826,
    "longitude": 76.3323692,
    "device_type": "- Rain gauge system"
  },
  {
    "cityName": "Kochi",
    "localityName": "Kakkanad",
    "localityId": "ZWL005555",
    "latitude": 10.014153,
    "longitude": 76.3586262,
    "device_type": "- Rain gauge system"
  },
  {
    "cityName": "Kochi",
    "localityName": "Nedumbassery,Kochi",
    "localityId": "ZWL002986",
    "latitude": 10.178008,
    "longitude": 76.3866362,
    "device_type": "- Rain gauge system"
  },
  {
    "cityName": "Kochi",
    "localityName": "North Paravur, Kochi",
    "localityId": "ZWL004273",
    "latitude": 10.162441,
    "longitude": 76.2163172,
    "device_type": "- Rain gauge system"
  },
  {
    "cityName": "Kochi",
    "localityName": "Aluva, Kochi",
    "localityId": "ZWL005425",
    "latitude": 10.106615,
    "longitude": 76.3488432,
    "device_type": "- Rain gauge system"
  },
  {
    "cityName": "Kochi",
    "localityName": "Ambalamugal",
    "localityId": "ZWL004691",
    "latitude": 9.980241,
    "longitude": 76.3979872,
    "device_type": "- Rain gauge system"
  },
  {
    "cityName": "Kochi",
    "localityName": "Kalamassery",
    "localityId": "ZWL001981",
    "latitude": 10.046034,
    "longitude": 76.3081172,
    "device_type": "- Rain gauge system"
  },
  {
    "cityName": "Kochi",
    "localityName": "Kaloor",
    "localityId": "ZWL003786",
    "latitude": 10.000143,
    "longitude": 76.2987442,
    "device_type": "- Rain gauge system"
  },
  {
    "cityName": "Kochi",
    "localityName": "Perumbavoor,Kochi",
    "localityId": "ZWL009487",
    "latitude": 10.117563,
    "longitude": 76.4603202,
    "device_type": "- Rain gauge system"
  },
  {
    "cityName": "Kochi",
    "localityName": "Thiruvankulam",
    "localityId": "ZWL007216",
    "latitude": 9.932264,
    "longitude": 76.3857402,
    "device_type": "- Rain gauge system"
  },
  {
    "cityName": "Kochi",
    "localityName": "Vypin, Kochi",
    "localityId": "ZWL002327",
    "latitude": 10.019731,
    "longitude": 76.2455952,
    "device_type": "- Rain gauge system"
  },
  {
    "cityName": "Kochi",
    "localityName": "Ernakulam",
    "localityId": "ZWL006873",
    "latitude": 9.969514,
    "longitude": 76.2882882,
    "device_type": "- Rain gauge system"
  },
  {
    "cityName": "Kochi",
    "localityName": "Fort Kochi",
    "localityId": "ZWL004591",
    "latitude": 9.931564,
    "longitude": 76.2680652,
    "device_type": "- Rain gauge system"
  },
  {
    "cityName": "Jaipur",
    "localityName": "Mansarovar-2",
    "localityId": "ZWL005082",
    "latitude": 26.844258,
    "longitude": 75.7685702,
    "device_type": "- Rain gauge system"
  },
  {
    "cityName": "Jaipur",
    "localityName": "Tonk road 2",
    "localityId": "ZWL003863",
    "latitude": 26.853567,
    "longitude": 75.7949452,
    "device_type": "- Rain gauge system"
  },
  {
    "cityName": "Jaipur",
    "localityName": "Jagatpura",
    "localityId": "ZWL009286",
    "latitude": 26.825942,
    "longitude": 75.8510862,
    "device_type": "- Rain gauge system"
  },
  {
    "cityName": "Jaipur",
    "localityName": "Shyam Nagar",
    "localityId": "ZWL009458",
    "latitude": 26.887617,
    "longitude": 75.7561742,
    "device_type": "- Rain gauge system"
  },
  {
    "cityName": "Jaipur",
    "localityName": "C Scheme",
    "localityId": "ZWL003704",
    "latitude": 26.916823,
    "longitude": 75.8011902,
    "device_type": "- Rain gauge system"
  },
  {
    "cityName": "Jaipur",
    "localityName": "Lal Kothi",
    "localityId": "ZWL003606",
    "latitude": 26.893689,
    "longitude": 75.7978002,
    "device_type": "- Rain gauge system"
  },
  {
    "cityName": "Jaipur",
    "localityName": "Pink City",
    "localityId": "ZWL009569",
    "latitude": 26.929588,
    "longitude": 75.8238552,
    "device_type": "- Rain gauge system"
  },
  {
    "cityName": "Jaipur",
    "localityName": "Vaishali Nagar",
    "localityId": "ZWL001750",
    "latitude": 26.909885,
    "longitude": 75.7393942,
    "device_type": "- Rain gauge system"
  },
  {
    "cityName": "Jaipur",
    "localityName": "Malviya Nagar",
    "localityId": "ZWL002751",
    "latitude": 26.854191,
    "longitude": 75.8107982,
    "device_type": "- Rain gauge system"
  },
  {
    "cityName": "Jaipur",
    "localityName": "Sodala",
    "localityId": "ZWL005080",
    "latitude": 26.904751,
    "longitude": 75.7776082,
    "device_type": "- Rain gauge system"
  },
  {
    "cityName": "Jaipur",
    "localityName": "Vidhyadhar Nagar",
    "localityId": "ZWL008680",
    "latitude": 26.963051,
    "longitude": 75.7701662,
    "device_type": "- Rain gauge system"
  },
  {
    "cityName": "Jaipur",
    "localityName": "Raja Park",
    "localityId": "ZWL008249",
    "latitude": 26.902497,
    "longitude": 75.8265442,
    "device_type": "- Rain gauge system"
  },
  {
    "cityName": "Jaipur",
    "localityName": "Shastri Nagar",
    "localityId": "ZWL008915",
    "latitude": 26.936514,
    "longitude": 75.7970542,
    "device_type": "- Rain gauge system"
  },
  {
    "cityName": "Jaipur",
    "localityName": "Pratap Nagar",
    "localityId": "ZWL006372",
    "latitude": 26.798396,
    "longitude": 75.8153532,
    "device_type": "- Rain gauge system"
  },
  {
    "cityName": "Ahmedabad",
    "localityName": "Paldi",
    "localityId": "ZWL003133",
    "latitude": 22.994998,
    "longitude": 72.5574742,
    "device_type": "- Rain gauge system"
  },
  {
    "cityName": "Ahmedabad",
    "localityName": "Shahibag",
    "localityId": "ZWL002302",
    "latitude": 23.058607,
    "longitude": 72.5922122,
    "device_type": "- Rain gauge system"
  },
  {
    "cityName": "Ahmedabad",
    "localityName": "Navrangpura",
    "localityId": "ZWL003747",
    "latitude": 23.038426,
    "longitude": 72.5582412,
    "device_type": "- Rain gauge system"
  },
  {
    "cityName": "Ahmedabad",
    "localityName": "Chandkheda",
    "localityId": "ZWL002503",
    "latitude": 23.117204,
    "longitude": 72.6071232,
    "device_type": "- Rain gauge system"
  },
  {
    "cityName": "Ahmedabad",
    "localityName": "Science-City Sola",
    "localityId": "ZWL005979",
    "latitude": 23.087361,
    "longitude": 72.5102892,
    "device_type": "- Rain gauge system"
  },
  {
    "cityName": "Ahmedabad",
    "localityName": "Sector 16, Gandhinagar",
    "localityId": "ZWL005987",
    "latitude": 23.216612,
    "longitude": 72.6525432,
    "device_type": "- Rain gauge system"
  },
  {
    "cityName": "Ahmedabad",
    "localityName": "Vastrapur",
    "localityId": "ZWL001959",
    "latitude": 23.042513,
    "longitude": 72.5243122,
    "device_type": "- Rain gauge system"
  },
  {
    "cityName": "Ahmedabad",
    "localityName": "Prahlad Nagar",
    "localityId": "ZWL007404",
    "latitude": 22.998074,
    "longitude": 72.5159552,
    "device_type": "- Rain gauge system"
  },
  {
    "cityName": "Ahmedabad",
    "localityName": "Nikol",
    "localityId": "ZWL001898",
    "latitude": 23.077071,
    "longitude": 72.6375662,
    "device_type": "- Rain gauge system"
  },
  {
    "cityName": "Ahmedabad",
    "localityName": "Infocity, Gandhinagar",
    "localityId": "ZWL002250",
    "latitude": 23.177762,
    "longitude": 72.6362212,
    "device_type": "- Rain gauge system"
  },
  {
    "cityName": "Ahmedabad",
    "localityName": "Naranpura",
    "localityId": "ZWL004415",
    "latitude": 23.072018,
    "longitude": 72.5731612,
    "device_type": "- Rain gauge system"
  },
  {
    "cityName": "Ahmedabad",
    "localityName": "Bopal",
    "localityId": "ZWL006288",
    "latitude": 23.011294,
    "longitude": 72.4640412,
    "device_type": "- Rain gauge system"
  },
  {
    "cityName": "Ahmedabad",
    "localityName": "Maninagar",
    "localityId": "ZWL009182",
    "latitude": 22.985307,
    "longitude": 72.6103222,
    "device_type": "- Rain gauge system"
  },
  {
    "cityName": "Ahmedabad",
    "localityName": "Bodakdev",
    "localityId": "ZWL009990",
    "latitude": 23.055398,
    "longitude": 72.4917242,
    "device_type": "- Rain gauge system"
  },
  {
    "cityName": "Ahmedabad",
    "localityName": "Gota",
    "localityId": "ZWL003455",
    "latitude": 23.131231,
    "longitude": 72.5436062,
    "device_type": "- Rain gauge system"
  },
  {
    "cityName": "Chandigarh",
    "localityName": "Sector 15 (Chandigarh)",
    "localityId": "ZWL007561",
    "latitude": 30.764466,
    "longitude": 76.7748152,
    "device_type": "- Rain gauge system"
  },
  {
    "cityName": "Chandigarh",
    "localityName": "Sector 8 (Chandigarh)",
    "localityId": "ZWL006687",
    "latitude": 30.749265,
    "longitude": 76.8015842,
    "device_type": "- Rain gauge system"
  },
  {
    "cityName": "Chandigarh",
    "localityName": "Manimajra (Chandigarh)",
    "localityId": "ZWL001934",
    "latitude": 30.722848,
    "longitude": 76.8353952,
    "device_type": "- Rain gauge system"
  },
  {
    "cityName": "Chandigarh",
    "localityName": "Industrial Area Phase I (Chandigarh)",
    "localityId": "ZWL003936",
    "latitude": 30.701381,
    "longitude": 76.8082312,
    "device_type": "- Rain gauge system"
  },
  {
    "cityName": "Chandigarh",
    "localityName": "Sector 59 (Chandigarh)",
    "localityId": "ZWL004716",
    "latitude": 30.725954,
    "longitude": 76.7166572,
    "device_type": "- Rain gauge system"
  },
  {
    "cityName": "Chandigarh",
    "localityName": "Sector 20, Panchkula",
    "localityId": "ZWL002303",
    "latitude": 30.667002,
    "longitude": 76.8601702,
    "device_type": "- Rain gauge system"
  },
  {
    "cityName": "Chandigarh",
    "localityName": "Sector 8/9 nd  Panchkula",
    "localityId": "ZWL009521",
    "latitude": 30.694507,
    "longitude": 76.8496042,
    "device_type": "- Rain gauge system"
  },
  {
    "cityName": "Chandigarh",
    "localityName": "Sector 28 (Chandigarh)",
    "localityId": "ZWL006817",
    "latitude": 30.724245,
    "longitude": 76.8088332,
    "device_type": "- Rain gauge system"
  },
  {
    "cityName": "Chandigarh",
    "localityName": "Phase 10 Mohali",
    "localityId": "ZWL003496",
    "latitude": 30.692094,
    "longitude": 76.7338462,
    "device_type": "- Rain gauge system"
  },
  {
    "cityName": "Chandigarh",
    "localityName": "Gillco, Chandigarh",
    "localityId": "ZWL009894",
    "latitude": 30.736526,
    "longitude": 76.6542932,
    "device_type": "- Rain gauge system"
  },
  {
    "cityName": "Chandigarh",
    "localityName": "Sector 46 (Chandigarh)",
    "localityId": "ZWL004101",
    "latitude": 30.70592,
    "longitude": 76.7623102,
    "device_type": "- Rain gauge system"
  },
  {
    "cityName": "Chandigarh",
    "localityName": "Sector 70 (Chandigarh)",
    "localityId": "ZWL003262",
    "latitude": 30.70987,
    "longitude": 76.6920502,
    "device_type": "- Rain gauge system"
  },
  {
    "cityName": "Chandigarh",
    "localityName": "VIP Road, Zirakpur",
    "localityId": "ZWL009430",
    "latitude": 30.656048,
    "longitude": 76.8232982,
    "device_type": "- Rain gauge system"
  },
  {
    "cityName": "Chandigarh",
    "localityName": "VR Mall",
    "localityId": "ZWL004196",
    "latitude": 30.730066,
    "longitude": 76.6842422,
    "device_type": "- Rain gauge system"
  },
  {
    "cityName": "Chandigarh",
    "localityName": "Sector 35 (Chandigarh)",
    "localityId": "ZWL003093",
    "latitude": 30.72729,
    "longitude": 76.7566322,
    "device_type": "- Rain gauge system"
  },
  {
    "cityName": "Chandigarh",
    "localityName": "Sector 22 (Chandigarh)",
    "localityId": "ZWL009406",
    "latitude": 30.735307,
    "longitude": 76.7749122,
    "device_type": "- Rain gauge system"
  },
  {
    "cityName": "Goa",
    "localityName": "Verna, Goa",
    "localityId": "ZWL002150",
    "latitude": 15.38064,
    "longitude": 73.9093042,
    "device_type": "- Rain gauge system"
  },
  {
    "cityName": "Goa",
    "localityName": "Mapusa, Goa",
    "localityId": "ZWL008519",
    "latitude": 15.599556,
    "longitude": 73.7911372,
    "device_type": "- Rain gauge system"
  },
  {
    "cityName": "Goa",
    "localityName": "Calangute, Goa",
    "localityId": "ZWL004452",
    "latitude": 15.532704,
    "longitude": 73.7626082,
    "device_type": "- Rain gauge system"
  },
  {
    "cityName": "Goa",
    "localityName": "Majorda, Goa",
    "localityId": "ZWL006556",
    "latitude": 15.255895,
    "longitude": 73.9376162,
    "device_type": "- Rain gauge system"
  },
  {
    "cityName": "Goa",
    "localityName": "Upper panaji, Goa",
    "localityId": "ZWL002137",
    "latitude": 15.460913,
    "longitude": 73.8353912,
    "device_type": "- Rain gauge system"
  },
  {
    "cityName": "Goa",
    "localityName": "Ponda, Goa",
    "localityId": "ZWL005093",
    "latitude": 15.398953,
    "longitude": 74.0023772,
    "device_type": "- Rain gauge system"
  },
  {
    "cityName": "Goa",
    "localityName": "Margao, Goa",
    "localityId": "ZWL002142",
    "latitude": 15.231363,
    "longitude": 73.9976892,
    "device_type": "- Rain gauge system"
  },
  {
    "cityName": "Goa",
    "localityName": "Vasco, Goa",
    "localityId": "ZWL004621",
    "latitude": 15.387592,
    "longitude": 73.8299792,
    "device_type": "- Rain gauge system"
  },
  {
    "cityName": "Goa",
    "localityName": "Morjim, Goa",
    "localityId": "ZWL006403",
    "latitude": 15.653757,
    "longitude": 73.7470222,
    "device_type": "- Rain gauge system"
  },
  {
    "cityName": "Goa",
    "localityName": "Porvorim, Goa",
    "localityId": "ZWL005568",
    "latitude": 15.535007,
    "longitude": 73.8272292,
    "device_type": "- Rain gauge system"
  },
  {
    "cityName": "Ludhiana",
    "localityName": "Sector 32, Ludhiana",
    "localityId": "ZWL009021",
    "latitude": 30.895881,
    "longitude": 75.9060502,
    "device_type": "- Rain gauge system"
  },
  {
    "cityName": "Ludhiana",
    "localityName": "Civil Lines, Ludhiana",
    "localityId": "ZWL006208",
    "latitude": 30.916548,
    "longitude": 75.8182662,
    "device_type": "- Rain gauge system"
  },
  {
    "cityName": "Ludhiana",
    "localityName": "Sarabha Nagar, Ludhiana",
    "localityId": "ZWL006788",
    "latitude": 30.891869,
    "longitude": 75.8349012,
    "device_type": "- Rain gauge system"
  },
  {
    "cityName": "Ludhiana",
    "localityName": "BRS Nagar, Ludhiana",
    "localityId": "ZWL005256",
    "latitude": 30.897774,
    "longitude": 75.7875442,
    "device_type": "- Rain gauge system"
  },
  {
    "cityName": "Ludhiana",
    "localityName": "Model Town, Ludhiana",
    "localityId": "ZWL001163",
    "latitude": 30.88106,
    "longitude": 75.8753092,
    "device_type": "- Rain gauge system"
  },
  {
    "cityName": "Ludhiana",
    "localityName": "Ganesh Nagar, Ludhiana",
    "localityId": "ZWL003304",
    "latitude": 30.91754,
    "longitude": 75.8797592,
    "device_type": "- Rain gauge system"
  },
  {
    "cityName": "Ludhiana",
    "localityName": "Dugri,Ludhiana",
    "localityId": "ZWL003119",
    "latitude": 30.856247,
    "longitude": 75.8431292,
    "device_type": "- Rain gauge system"
  },
  {
    "cityName": "Guwahati",
    "localityName": "Pathar Quarry, Guwahati",
    "localityId": "ZWL006981",
    "latitude": 26.159879,
    "longitude": 91.8276512,
    "device_type": "- Rain gauge system"
  },
  {
    "cityName": "Guwahati",
    "localityName": "Basistha-Lokhra, Guwahati",
    "localityId": "ZWL006537",
    "latitude": 26.116888,
    "longitude": 91.7774882,
    "device_type": "- Rain gauge system"
  },
  {
    "cityName": "Guwahati",
    "localityName": "North Guwahati, Guwahati",
    "localityId": "ZWL009407",
    "latitude": 26.196471,
    "longitude": 91.6847882,
    "device_type": "- Rain gauge system"
  },
  {
    "cityName": "Guwahati",
    "localityName": "Dharapur, Guwahati",
    "localityId": "ZWL004763",
    "latitude": 26.134004,
    "longitude": 91.6238952,
    "device_type": "- Rain gauge system"
  },
  {
    "cityName": "Guwahati",
    "localityName": "Lal Ganesh - Kahilipara, Guwahati",
    "localityId": "ZWL007095",
    "latitude": 26.145102,
    "longitude": 91.7526562,
    "device_type": "- Rain gauge system"
  },
  {
    "cityName": "Guwahati",
    "localityName": "Paltan-Bazar, Guwahati",
    "localityId": "ZWL002105",
    "latitude": 26.183358,
    "longitude": 91.7524802,
    "device_type": "- Rain gauge system"
  },
  {
    "cityName": "Guwahati",
    "localityName": "Azara, Guwahati",
    "localityId": "ZWL003362",
    "latitude": 26.110966,
    "longitude": 91.6021152,
    "device_type": "- Rain gauge system"
  },
  {
    "cityName": "Guwahati",
    "localityName": "Changsari, Guwahati",
    "localityId": "ZWL002491",
    "latitude": 26.262376,
    "longitude": 91.6948792,
    "device_type": "- Rain gauge system"
  },
  {
    "cityName": "Guwahati",
    "localityName": "Maligaon - Jalukbari, Guwahati",
    "localityId": "ZWL005319",
    "latitude": 26.161285,
    "longitude": 91.6895762,
    "device_type": "- Rain gauge system"
  },
  {
    "cityName": "Guwahati",
    "localityName": "Zoo Tiniali - Christian basti",
    "localityId": "ZWL005708",
    "latitude": 26.177033,
    "longitude": 91.7797992,
    "device_type": "- Rain gauge system"
  },
  {
    "cityName": "Amritsar",
    "localityName": "Himatpura, Amritsar",
    "localityId": "ZWL001780",
    "latitude": 31.608999,
    "longitude": 74.8630512,
    "device_type": "- Rain gauge system"
  },